id,name,longitude,latitude,north,east
1,서울특별시 강남구 개포동,127.057440206035,37.4819251305595,4150108.17601028,328246.99697792367
2,서울특별시 강남구 논현동,127.030154778539,37.5126451506882,4153567.0069553717,325905.6522130155
3,서울특별시 강남구 대치동,127.056693501258,37.4932421505467,4151365.2654512394,328206.90005306527
4,서울특별시 강남구 도곡동,127.038482017226,37.4909537197218,4151144.750484241,326591.5030209685
5,서울특별시 강남구 삼성동,127.062831022499,37.514322572329,4153693.1450024047,328797.69208572595
6,서울특별시 강남구 세곡동,127.106760267266,37.4644437055763,4148079.6067198394,332569.08270289283
7,서울특별시 강남구 수서동,127.105003972121,37.4888878594165,4150795.008430174,332468.348197844
8,서울특별시 강남구 신사동,127.02277448907,37.5239850298543,4154838.970228835,325279.772177179
9,서울특별시 강남구 압구정동,127.030809170421,37.5306686414269,4155565.6844805176,326005.37289772974
10,서울특별시 강남구 역삼동,127.03306536185,37.4953666908089,4151644.4086251534,326122.8287289804
11,서울특별시 강남구 율현동,127.115817745643,37.4709765124343,4148788.4039171194,333384.67345248547
12,서울특별시 강남구 일원동,127.080430036811,37.4795654903151,4149804.6458773967,330274.52228264394
13,서울특별시 강남구 자곡동,127.092180565565,37.473390398797,4149098.3429111177,331299.70062749233
14,서울특별시 강남구 청담동,127.049237564785,37.525029332991,4154905.9982306715,327620.858831826
15,서울특별시 강동구 강일동,127.173919661642,37.564944692054,4159113.646020611,338725.4450809966
16,서울특별시 강동구 고덕동,127.155939319817,37.5641661222506,4159058.277501179,337135.6321050882
17,서울특별시 강동구 길동,127.146210897573,37.5392317533412,4156308.503339129,336221.7798520741
18,서울특별시 강동구 둔촌동,127.142354524933,37.527188288761,4154978.9058427815,335854.6421013199
19,서울특별시 강동구 명일동,127.150304746486,37.5494403330957,4157434.106565229,336605.7867138472
20,서울특별시 강동구 상일동,127.168300419218,37.5505837474646,4157529.8400292965,338198.06196817197
21,서울특별시 강동구 성내동,127.130026914568,37.5292748071427,4155232.016933053,334769.85329431796
22,서울특별시 강동구 암사동,127.13168588897,37.5591140475276,4158540.028812233,334982.26674997003
23,서울특별시 강동구 천호동,127.12866892591,37.542221863425,4156670.9930881895,334678.4475215234
24,서울특별시 강북구 미아동,127.027060776679,37.6270831294022,4166270.890186187,325898.8880859554
25,서울특별시 강북구 번동,127.04133717608,37.6241057350225,4165914.1114312415,327151.9312469554
26,서울특별시 강북구 수유동,127.022094520762,37.6424621841483,4167986.612546751,325496.584701353
27,서울특별시 강북구 우이동,127.001890452891,37.6630390800114,4170307.674833779,323762.53010773053
28,서울특별시 강서구 가양동,126.84732341674,37.5693673262879,4160215.29454215,309889.3322464394
29,서울특별시 강서구 개화동,126.810864581737,37.5913312008972,4162726.9471902396,306725.9378992978
30,서울특별시 강서구 공항동,126.810109136838,37.5588726032733,4159126.734049764,306575.2449744817
31,서울특별시 강서구 과해동,126.787712416395,37.5656027325697,4159919.898587791,304614.36176879576
32,서울특별시 강서구 내발산동,126.83326640676,37.5543737621718,4158580.091821539,308609.38004636066
33,서울특별시 강서구 등촌동,126.843670821456,37.562237476114,4159431.536415652,309548.55713643687
34,서울특별시 강서구 마곡동,126.830205192607,37.5747859514344,4160851.36038367,308391.2646600845
35,서울특별시 강서구 방화동,126.811820803059,37.571309073515,4160503.2216180447,306758.59635351645
36,서울특별시 강서구 염창동,126.870985348962,37.5537362431352,4158433.177294865,311939.9454348211
37,서울특별시 강서구 오곡동,126.783116898869,37.5515676820463,4158372.065625133,304171.6901044829
38,서울특별시 강서구 오쇠동,126.797918436909,37.5434597373437,4157441.6197142275,305458.26784259523
39,서울특별시 강서구 외발산동,126.82085631674,37.5438427469629,4157436.87903766,307485.9432689877
40,서울특별시 강서구 화곡동,126.848952280488,37.5362848031695,4156541.0319688157,309949.16138001136
41,서울특별시 관악구 남현동,126.977846469625,37.474566758872,4149439.9259607443,321191.3610502038
42,서울특별시 관악구 봉천동,126.952165181187,37.482538491727,4150373.573389519,318939.4898665909
43,서울특별시 관악구 신림동,126.927123713685,37.4874127684412,4150962.905117665,316737.0955859761
44,서울특별시 광진구 광장동,127.103025712709,37.5468565308905,4157230.668290364,332423.17985341325
45,서울특별시 광진구 구의동,127.093135225891,37.5502741239803,4157627.5655689836,331557.0748703523
46,서울특별시 광진구 군자동,127.075902795587,37.5551446392215,4158199.0274049034,330045.7657176922
47,서울특별시 광진구 능동,127.080536887135,37.5537792609499,4158039.1529084104,330452.03698578686
48,서울특별시 광진구 자양동,127.073018338792,37.5311077958689,4155537.1266305116,329736.277741492
49,서울특별시 광진구 중곡동,127.090401426965,37.5617477458585,4158905.579034286,331341.4345385509
50,서울특별시 광진구 화양동,127.071367614735,37.5464762611364,4157245.398159015,329625.39710403635
51,서울특별시 구로구 가리봉동,126.889718085071,37.4825327471338,4150494.919882731,313417.53522320365
52,서울특별시 구로구 개봉동,126.857746551058,37.4930115322775,4151721.547195364,310616.8719399874
53,서울특별시 구로구 고척동,126.863557123957,37.5013977406623,4152640.4228353896,311151.74207200715
54,서울특별시 구로구 구로동,126.882642231121,37.4957707378732,4151977.890541023,312824.89563382545
55,서울특별시 구로구 궁동,126.827457184485,37.5018731116131,4152766.263999093,307961.55423396034
56,서울특별시 구로구 신도림동,126.880610228674,37.5077809050367,4153314.61367471,312675.2692128757
57,서울특별시 구로구 오류동,126.835492478188,37.4889461307052,4151315.468786101,308638.90887464763
58,서울특별시 구로구 온수동,126.820586087352,37.4941466665876,4151922.961069729,307334.25655613333
59,서울특별시 구로구 천왕동,126.83999317372,37.4802774110978,4150344.4172797883,309014.7800155954
60,서울특별시 구로구 항동,126.823409784343,37.4801853131196,4150367.983275771,307548.0762337597
61,서울특별시 금천구 가산동,126.891779471155,37.4768763179226,4149863.186315256,313585.7570767794
62,서울특별시 금천구 독산동,126.899392976389,37.4681432491736,4148879.097405002,314237.41792917106
63,서울특별시 금천구 시흥동,126.908452220723,37.4476688042388,4146589.38814864,314988.18508588267
64,서울특별시 노원구 공릉동,127.073821318894,37.6248431089169,4165936.5735000945,330020.55151580693
65,서울특별시 노원구 상계동,127.060252770712,37.66125057554,4170001.0786669347,328906.61313982983
66,서울특별시 노원구 월계동,127.062987742987,37.6199191869585,4165409.8946734844,329053.1477444487
67,서울특별시 노원구 중계동,127.077488598779,37.6525550467648,4169004.886827219,330407.24137521605
68,서울특별시 노원구 하계동,127.072685646642,37.6404885286244,4167674.6674254374,329955.992575182
69,서울특별시 도봉구 도봉동,127.021495626589,37.6873960128039,4172973.7045349204,325548.98817723
70,서울특별시 도봉구 방학동,127.026875382235,37.665897548954,4170578.1701862505,325973.1546614046
71,서울특별시 도봉구 쌍문동,127.029190894368,37.6513191127048,4168956.2143500606,326143.3914377955
72,서울특별시 도봉구 창동,127.045432300312,37.6522582058481,4169030.4228627095,327578.4561796207
73,서울특별시 동대문구 답십리동,127.056655839753,37.5690668295007,4159778.828109138,328377.4809546841
74,서울특별시 동대문구 신설동,127.025538570996,37.5749629616682,4160490.3829749394,325642.89564896584
75,서울특별시 동대문구 용두동,127.033598820976,37.5754186480422,4160526.012185441,326355.7964386912
76,서울특별시 동대문구 이문동,127.066373060068,37.6004055110663,4163238.474832545,329307.3280818681
77,서울특별시 동대문구 장안동,127.071439570463,37.5696967138507,4159821.809924098,329684.6393967313
78,서울특별시 동대문구 전농동,127.053978285554,37.5793286114287,4160922.3774338453,328164.5865970731
79,서울특별시 동대문구 제기동,127.037818414722,37.5831154639893,4161372.2644732,326746.2920890283
80,서울특별시 동대문구 청량리동,127.047289719403,37.5862511095438,4161702.7643213635,327589.8941585617
81,서울특별시 동대문구 회기동,127.05537245757,37.5907885967282,4162191.4357642042,328314.0397085957
82,서울특별시 동대문구 휘경동,127.065730507228,37.5908553624268,4162179.951849984,329228.76673797244
83,서울특별시 동작구 노량진동,126.940393261193,37.510705811037,4153521.770776549,317966.9713616832
84,서울특별시 동작구 대방동,126.926343500008,37.508164261,4153267.043587239,316718.8609930301
85,서울특별시 동작구 동작동,126.973876571542,37.4992139256223,4152182.3382504676,320899.16658351145
86,서울특별시 동작구 본동,126.954204316851,37.513029355907,4153752.951290077,319193.3697150027
87,서울특별시 동작구 사당동,126.9731356614,37.483932674151,4150488.1316869245,320797.1422483183
88,서울특별시 동작구 상도1동,126.94974984805,37.50324263284,4152675.5772033078,318775.9712099341
89,서울특별시 동작구 상도동,126.939014238644,37.4985163075707,4152171.875703108,317815.4421780515
90,서울특별시 동작구 신대방동,126.914941920386,37.4930124961568,4151608.056192702,315673.7480033111
91,서울특별시 동작구 흑석동,126.966590753167,37.505775015354,4152924.2593549355,320270.7965600736
92,서울특별시 마포구 공덕동,126.960034513244,37.550174347382,4157863.4230351807,319798.1340363512
93,서울특별시 마포구 구수동,126.932539327611,37.5457361347135,4157424.0358237554,317358.22016834654
94,서울특별시 마포구 노고산동,126.937909479778,37.5543526246389,4158369.7167502698,317853.65938820905
95,서울특별시 마포구 당인동,126.919627791269,37.5437530625519,4157229.1630094233,316212.599957019
96,서울특별시 마포구 대흥동,126.943417480887,37.5499477102299,4157870.2735989476,318329.54283956456
97,서울특별시 마포구 도화동,126.949873511116,37.541549712387,4156925.952446749,318879.5786215843
98,서울특별시 마포구 동교동,126.922261659865,37.557208530833,4158717.067823137,316478.324352611
99,서울특별시 마포구 마포동,126.943825451904,37.5371140702001,4156445.438240491,318334.4305200484
100,서울특별시 마포구 망원동,126.901347294861,37.5567856576915,4158711.207044347,314629.74710164155
101,서울특별시 마포구 상수동,126.924776753718,37.5456269289384,4157427.034069445,316672.1204453451
102,서울특별시 마포구 상암동,126.894689433213,37.5783209050878,4161113.9875236317,314095.1606679925
103,서울특별시 마포구 서교동,126.91459072348,37.5551093133848,4158499.1458831327,315795.52130823454
104,서울특별시 마포구 성산동,126.909284812172,37.5628827605388,4159372.1267002225,315345.9905478986
105,서울특별시 마포구 신공덕동,126.95556152591,37.5437143887632,4157155.201846838,319387.37213598576
106,서울특별시 마포구 신수동,126.935226865858,37.5470206619263,4157561.349620858,317598.7985690327
107,서울특별시 마포구 신정동,126.930332866478,37.5431615999641,4157142.650426905,317156.98580652295
108,서울특별시 마포구 아현동,126.955903701632,37.5544832516732,4158349.4777041194,319443.5964447848
109,서울특별시 마포구 연남동,126.922023205508,37.5644776141887,4159524.130788991,316475.10064904985
110,서울특별시 마포구 염리동,126.94565571696,37.5470619620455,4157545.7397951903,318520.28187627706
111,서울특별시 마포구 용강동,126.942776042667,37.5422744939978,4157020.0779447383,318254.23628772947
112,서울특별시 마포구 중동,126.9055839139,37.5716627632573,4160353.6648811395,315040.8088953773
113,서울특별시 마포구 창전동,126.92977041133,37.5492736432042,4157821.9514206443,317122.23059808917
114,서울특별시 마포구 토정동,126.939782456982,37.5388960581726,4156650.993423046,317981.5208460436
115,서울특별시 마포구 하중동,126.927779696718,37.5435745257491,4157193.440310349,316932.4128735579
116,서울특별시 마포구 합정동,126.911756414276,37.5516618139959,4158122.1628357805,315536.6359305503
117,서울특별시 마포구 현석동,126.934289634391,37.5421619566647,4157024.0366447214,317504.14458949387
118,서울특별시 서대문구 남가좌동,126.919548350676,37.5755473825403,4160757.3027728964,316283.7060593342
119,서울특별시 서대문구 냉천동,126.961963463309,37.5667821636121,4159702.560906961,320008.52259063296
120,서울특별시 서대문구 대신동,126.944330406191,37.5640649698096,4159434.991524621,318444.4692080156
121,서울특별시 서대문구 대현동,126.947212193537,37.5607686463542,4159063.6577839735,318691.0228071376
122,서울특별시 서대문구 미근동,126.967253249905,37.5632950923108,4159305.504917871,320467.3740848154
123,서울특별시 서대문구 봉원동,126.946963866133,37.5725932042941,4160376.2177840914,318697.7638334901
124,서울특별시 서대문구 북가좌동,126.91039845202,37.5780815956199,4161056.447437067,315481.8799035697
125,서울특별시 서대문구 북아현동,126.956905737336,37.5595724546077,4158912.2606388642,319544.3962976044
126,서울특별시 서대문구 신촌동,126.93927687604,37.5651616940519,4159566.4665614986,318000.76419043203
127,서울특별시 서대문구 연희동,126.935230751932,37.573910010416,4160545.0501760202,317664.7169401399
128,서울특별시 서대문구 영천동,126.956682170377,37.5703879302213,4160112.7984722448,319550.7516886182
129,서울특별시 서대문구 옥천동,126.95890126611,37.5695598078732,4160016.6468572435,319744.7488872644
130,서울특별시 서대문구 창천동,126.934193637741,37.5586862112856,4158857.7925019045,317535.97148681385
131,서울특별시 서대문구 천연동,126.958422464555,37.5675017663096,4159789.201146875,319697.49650583393
132,서울특별시 서대문구 충정로2가,126.964119536636,37.564851103114,4159484.156993166,320194.31550479215
133,서울특별시 서대문구 충정로3가,126.961983963838,37.5620789699491,4159180.6456627008,319999.01140318974
134,서울특별시 서대문구 합동,126.966031651429,37.5615287939471,4159111.848549805,320355.2271820123
135,서울특별시 서대문구 현저동,126.95407204926,37.5737854968818,4160494.8184771114,319328.4337588393
136,서울특별시 서대문구 홍은동,126.933218715152,37.5908908122789,4162433.1968503133,317528.490661475
137,서울특별시 서대문구 홍제동,126.948725215733,37.5858458009441,4161843.3603954967,318885.4460076031
138,서울특별시 서초구 내곡동,127.076916934729,37.4582463131039,4147445.44410125,329915.5504069574
139,서울특별시 서초구 반포동,127.013359062646,37.5051446767402,4152765.9775371277,324403.5194962402
140,서울특별시 서초구 방배동,126.994486969319,37.483413014657,4150390.0248086434,322683.86750999675
141,서울특별시 서초구 서초동,127.01953478052,37.4900861966504,4151083.578538795,324914.2681939425
142,서울특별시 서초구 신원동,127.062170998757,37.4440189779747,4145893.539091834,328578.7568023406
143,서울특별시 서초구 양재동,127.037463917199,37.4720040276214,4149043.982006819,326457.6458151343
144,서울특별시 서초구 염곡동,127.053907608672,37.4622991870892,4147936.9557812074,327889.61141484056
145,서울특별시 서초구 우면동,127.01605116304,37.4646530229736,4148268.010616167,324546.7819328852
146,서울특별시 서초구 원지동,127.048637026567,37.4433117184792,4145839.779127564,327379.78842742264
147,서울특별시 서초구 잠원동,127.014102820234,37.5149186880221,4153849.115745182,324492.16399707063
148,서울특별시 성동구 금호동1가,127.02279294328,37.554885724907,4158267.694241045,325353.52654746745
149,서울특별시 성동구 금호동2가,127.020406751011,37.5529940659196,4158062.2324286695,325138.3107089297
150,서울특별시 성동구 금호동3가,127.020166005976,37.5499307132641,4157722.768432561,325109.88152395486
151,서울특별시 성동구 금호동4가,127.026161935006,37.5447325755774,4157134.8368784487,325627.47671361687
152,서울특별시 성동구 도선동,127.033530216268,37.5637958263855,4159236.4606156372,326322.7383833837
153,서울특별시 성동구 마장동,127.045325760782,37.5663795479871,4159501.4086166914,327370.5830058664
154,서울특별시 성동구 사근동,127.045327331714,37.5614997515695,4158959.9407120366,327359.45575964265
155,서울특별시 성동구 상왕십리동,127.024784739728,37.5684327095864,4159767.179140295,325561.08315517346
156,서울특별시 성동구 성수동1가,127.043351028535,37.5417253860377,4156769.402926713,327139.2007216704
157,서울특별시 성동구 성수동2가,127.057019282187,37.5409627375216,4156659.727655626,328345.09850725
158,서울특별시 성동구 송정동,127.069569072089,37.5545322586261,4158142.5534134735,329484.8613294052
159,서울특별시 성동구 옥수동,127.018104401506,37.5416562715266,4156808.469364093,324908.3877655361
160,서울특별시 성동구 용답동,127.055579052769,37.5640758244217,4159226.992042411,328270.91429881967
161,서울특별시 성동구 응봉동,127.033416807797,37.5531604882762,4158056.565860624,326288.0206758956
162,서울특별시 성동구 하왕십리동,127.028703243306,37.5619122139371,4159036.388938787,325891.9943012338
163,서울특별시 성동구 행당동,127.037031736958,37.5583059078881,4158620.827398624,326619.2940625204
164,서울특별시 성동구 홍익동,127.032213833438,37.5663550219261,4159522.8657227876,326212.4127746539
165,서울특별시 성북구 길음동,127.023343590916,37.6076658267475,4164123.2164248633,325525.4445132128
166,서울특별시 성북구 돈암동,127.00991034218,37.5962791991149,4162884.796170627,324312.8141467873
167,서울특별시 성북구 동선동1가,127.018211777612,37.5923102427412,4162428.8893212955,325036.45221973275
168,서울특별시 성북구 동선동2가,127.020040985677,37.5901655850025,4162187.5072376593,325192.94309385156
169,서울특별시 성북구 동선동3가,127.020599250097,37.5944938544003,4162666.739011552,325252.36213151383
170,서울특별시 성북구 동선동4가,127.018633716126,37.5952221822842,4162751.2162583484,325080.526541807
171,서울특별시 성북구 동선동5가,127.016844785039,37.5959288284837,4162832.961959141,324924.235847099
172,서울특별시 성북구 동소문동1가,127.007210212424,37.5900265113417,4162196.0444483566,324059.6918730646
173,서울특별시 성북구 동소문동2가,127.008238156364,37.5887073911224,4162047.746707329,324147.3517745314
174,서울특별시 성북구 동소문동3가,127.010489205319,37.5898604829039,4162171.4814717355,324348.8287329044
175,서울특별시 성북구 동소문동4가,127.01063893326,37.5917597611251,4162381.948322256,324366.5148879377
176,서울특별시 성북구 동소문동5가,127.01537185184,37.5916367047087,4162359.449372931,324784.1216748159
177,서울특별시 성북구 동소문동6가,127.01399531696,37.5933415527604,4162551.1921783,324666.5814217349
178,서울특별시 성북구 동소문동7가,127.014190641129,37.5963292176218,4162882.343516445,324690.8398701779
179,서울특별시 성북구 보문동1가,127.019645993321,37.586489601596,4161780.350460558,325149.46316927444
180,서울특별시 성북구 보문동2가,127.018210178625,37.5857474136522,4161700.671213348,325020.94018322544
181,서울특별시 성북구 보문동3가,127.016352976758,37.5838880357102,4161497.814883094,324852.58597707044
182,서울특별시 성북구 보문동4가,127.021347801017,37.5828961453855,4161378.4477568953,325291.3334812613
183,서울특별시 성북구 보문동5가,127.020066071097,37.5823846059338,4161324.072346095,325176.95240484446
184,서울특별시 성북구 보문동6가,127.018842854522,37.5803846015947,4161104.4274259913,325064.25251064403
185,서울특별시 성북구 보문동7가,127.022551479065,37.5798181272131,4161034.6679975702,325390.4333329112
186,서울특별시 성북구 삼선동1가,127.008396217359,37.5846817438786,4161600.758430323,324151.83369206917
187,서울특별시 성북구 삼선동2가,127.011439305713,37.583369642001,4161449.4705467504,324417.467080242
188,서울특별시 성북구 삼선동3가,127.013092803419,37.5865085302362,4161794.675422405,324570.84985456127
189,서울특별시 성북구 삼선동4가,127.013723013975,37.5903502910641,4162219.7856873902,324635.5166157702
190,서울특별시 성북구 삼선동5가,127.015851281018,37.5885336236906,4162014.2320628464,324819.17658153037
191,서울특별시 성북구 상월곡동,127.045527017386,37.6069133345459,4163998.706223447,327481.9784270425
192,서울특별시 성북구 석관동,127.0614007785,37.6129860183722,4164643.474944967,328897.1859703871
193,서울특별시 성북구 성북동,127.003274531869,37.591046609396,4162316.6195711372,323714.5877723864
194,서울특별시 성북구 성북동1가,127.003614139532,37.5895149125504,4162146.022156737,323740.9599795613
195,서울특별시 성북구 안암동1가,127.02135842744,37.5883885968467,4161987.8778023142,325305.11432037735
196,서울특별시 성북구 안암동2가,127.02216855408,37.5865287984821,4161780.0048800493,325372.30101076467
197,서울특별시 성북구 안암동3가,127.023313410414,37.5835336768551,4161445.5334792915,325466.3974332961
198,서울특별시 성북구 안암동4가,127.024648423554,37.5807006819401,4161128.7001132267,325577.6733246873
199,서울특별시 성북구 안암동5가,127.029021378105,37.5883977734309,4161974.664622933,325981.76906389726
200,서울특별시 성북구 장위동,127.04956549458,37.6170568426304,4165116.826680237,327861.87663134036
201,서울특별시 성북구 정릉동,126.995482832879,37.6185808255471,4165386.5346651063,323091.8597379272
202,서울특별시 성북구 종암동,127.035212918853,37.5990602270307,4163146.3253570516,326553.2380620234
203,서울특별시 성북구 하월곡동,127.037812638789,37.6075035036309,4164078.4019090314,326802.3439662345
204,서울특별시 송파구 가락동,127.105729381413,37.496542166563,4151643.026563211,332549.5828580982
205,서울특별시 송파구 거여동,127.143310298223,37.4969242257406,4151619.1956934715,335872.81781332905
206,서울특별시 송파구 마천동,127.149903613069,37.4960258496319,4151508.032443589,336453.74503175006
207,서울특별시 송파구 문정동,127.118267660547,37.4847415034154,4150311.4051570636,333631.86807578814
208,서울특별시 송파구 방이동,127.123923689605,37.5110126423951,4153216.4181556776,334190.1000868653
209,서울특별시 송파구 삼전동,127.092519707191,37.5027233386059,4152352.4743588157,331395.6620752153
210,서울특별시 송파구 석촌동,127.103667384036,37.5035646306704,4152425.900785809,332382.9937066479
211,서울특별시 송파구 송파동,127.109579159297,37.5060929206302,4152695.9183991062,332911.2230077578
212,서울특별시 송파구 신천동,127.101366591012,37.5182926381798,4154064.2041938156,332212.5937197831
213,서울특별시 송파구 오금동,127.128103942644,37.5029820350038,4152317.9947952437,334541.85901367187
214,서울특별시 송파구 잠실동,127.088282780728,37.5119564733933,4153384.5753619005,331041.9397641088
215,서울특별시 송파구 장지동,127.136582139995,37.4785083981104,4149587.57505726,335237.5499465973
216,서울특별시 송파구 풍납동,127.122225970875,37.5380588825242,4156220.426073118,334099.96833273454
217,서울특별시 양천구 목동,126.870989288343,37.5304364108361,4155847.7423236542,311881.7266346572
218,서울특별시 양천구 신월동,126.831535864977,37.5328158189362,4156191.4609528324,308401.30415121175
219,서울특별시 양천구 신정동,126.854354325392,37.5185526780281,4154562.504960642,310381.599221641
220,서울특별시 영등포구 당산동,126.902165652703,37.5402584246454,4156875.683504086,314661.0995460195
221,서울특별시 영등포구 당산동1가,126.898547402403,37.5216623144433,4154819.3517963286,314295.2722201268
222,서울특별시 영등포구 당산동2가,126.893736304951,37.5224653819519,4154917.9759571897,313872.06326915853
223,서울특별시 영등포구 당산동3가,126.89671357564,37.5258485828122,4155287.494578515,314143.5895636767
224,서울특별시 영등포구 당산동4가,126.899075891843,37.5290653986881,4155639.7730983193,314360.33581083675
225,서울특별시 영등포구 당산동5가,126.901203325782,37.5320981652415,4155972.097534369,314555.8527085037
226,서울특별시 영등포구 당산동6가,126.904735599528,37.5337949488347,4156153.4141011937,314872.1878277271
227,서울특별시 영등포구 대림동,126.902006335554,37.4925087229048,4151577.579066189,314528.8185310691
228,서울특별시 영등포구 도림동,126.895944463887,37.5094388403259,4153468.149781207,314034.8783283482
229,서울특별시 영등포구 문래동1가,126.896981114579,37.5122797138519,4153781.3303845045,314133.5610747924
230,서울특별시 영등포구 문래동2가,126.893057862261,37.5127447489725,4153840.693321993,313787.93628051307
231,서울특별시 영등포구 문래동3가,126.896816819326,37.5165971793935,4154260.7314818883,314129.7526836113
232,서울특별시 영등포구 문래동4가,126.889829482109,37.5144572928257,4154037.119210321,313506.8413927989
233,서울특별시 영등포구 문래동5가,126.8844154127,37.5162865616224,4154250.8510154244,313032.86509926344
234,서울특별시 영등포구 문래동6가,126.886822180022,37.5194820467021,4154600.6476339996,313253.55898191466
235,서울특별시 영등포구 신길동,126.91406973946,37.5041663202169,4152847.414053573,315624.0764089223
236,서울특별시 영등포구 양평동,126.885713864668,37.5282170949853,4155572.1146259964,313177.3984085738
237,서울특별시 영등포구 양평동1가,126.888223442468,37.5234622076973,4155039.5147194853,313387.32524641044
238,서울특별시 영등포구 양평동2가,126.882336382875,37.5234853215282,4155053.7812484913,312867.09595112817
239,서울특별시 영등포구 양평동3가,126.891015825174,37.5293681802836,4155689.3183892835,313648.8107616125
240,서울특별시 영등포구 양평동4가,126.896766179375,37.5369309404221,4156517.1187014864,314175.7507780199
241,서울특별시 영등포구 양평동5가,126.892639686611,37.5393563567172,4156794.4165440113,313817.15944615286
242,서울특별시 영등포구 양평동6가,126.890503614635,37.5423276935983,4157128.358721075,313635.8178585916
243,서울특별시 영등포구 양화동,126.88545485776,37.5496245970544,4157948.0703509026,313207.94960859965
244,서울특별시 영등포구 여의도동,126.930167091136,37.5267849150832,4155325.781178745,317102.32631072006
245,서울특별시 영등포구 영등포동,126.906168599588,37.5134118222975,4153888.832392508,314948.4493224673
246,서울특별시 영등포구 영등포동1가,126.913185328453,37.5178393128914,4154366.331341536,315579.5567483137
247,서울특별시 영등포구 영등포동2가,126.91150771146,37.5207969614044,4154697.810271074,315438.5706218541
248,서울특별시 영등포구 영등포동3가,126.90787737105,37.5182713776918,4154424.6982059893,315111.4829593133
249,서울특별시 영등포구 영등포동4가,126.903552262737,37.5178895038416,4154390.838048548,314728.2682753033
250,서울특별시 영등포구 영등포동5가,126.906688412883,37.5210743651059,4154738.0627244906,315013.32199908374
251,서울특별시 영등포구 영등포동6가,126.90316740849,37.5215905083397,4154802.268681338,314703.4106011386
252,서울특별시 영등포구 영등포동7가,126.907114627945,37.5240155727984,4155063.587532031,315058.2553515042
253,서울특별시 영등포구 영등포동8가,126.905253942411,37.5283028633871,4155542.977667143,314904.4123955547
254,서울특별시 용산구 갈월동,126.972162579372,37.5467756584414,4157463.108662431,320861.4544706728
255,서울특별시 용산구 남영동,126.973322683547,37.5430061454347,4157042.626843375,320954.9291160131
256,서울특별시 용산구 도원동,126.955125834612,37.5381208172629,4156535.3666833597,319335.3740337611
257,서울특별시 용산구 동빙고동,126.995112936884,37.5244123976897,4154938.155619864,322836.17452658573
258,서울특별시 용산구 동자동,126.972396006945,37.5520519606978,4158048.1306646806,320894.7098714969
259,서울특별시 용산구 문배동,126.969405422634,37.5371018437134,4156394.9470312707,320594.67084487237
260,서울특별시 용산구 보광동,127.000176481677,37.5262793753292,4155135.787285183,323288.0731186525
261,서울특별시 용산구 산천동,126.951801048783,37.535416505796,4156241.687746851,319035.05824977346
262,서울특별시 용산구 서계동,126.966999743181,37.5529659898692,4158159.8531954056,320420.181659805
263,서울특별시 용산구 서빙고동,126.994638088433,37.5204623812777,4154500.7536633955,322784.86231772444
264,서울특별시 용산구 신계동,126.966740278708,37.5358253064501,4156258.3910752023,320356.11283870554
265,서울특별시 용산구 신창동,126.954946215115,37.5357673358181,4156274.56563844,319313.8213896513
266,서울특별시 용산구 용문동,126.959891817892,37.537700864015,4156479.617303738,319755.48357540625
267,서울특별시 용산구 용산동1가,126.976967186602,37.5399939693424,4156701.4543189993,321269.7403872834
268,서울특별시 용산구 용산동2가,126.982945593811,37.5419195197565,4156903.763427719,321802.5607411598
269,서울특별시 용산구 용산동3가,126.976965160519,37.5318669434274,4155799.672788612,321250.1539516635
270,서울특별시 용산구 용산동4가,126.985224458926,37.5306248837306,4155646.1789175263,321977.04785028694
271,서울특별시 용산구 용산동5가,126.974364951898,37.5261432450492,4155169.511824487,321006.6980507591
272,서울특별시 용산구 용산동6가,126.980329796658,37.5235531064681,4154870.7674476984,321527.65935083607
273,서울특별시 용산구 원효로1가,126.967064466585,37.539613202648,4156678.0821908456,320393.84904753906
274,서울특별시 용산구 원효로2가,126.963323111963,37.5362892108966,4156316.4032503557,320055.27935341606
275,서울특별시 용산구 원효로3가,126.957635334291,37.53430510598,4156107.1481549554,319547.91356379364
276,서울특별시 용산구 원효로4가,126.950590243026,37.5322516903751,4155892.8462011134,318920.41193128837
277,서울특별시 용산구 이촌동,126.972097769518,37.5141954312251,4153848.0878610616,320777.7489711462
278,서울특별시 용산구 이태원동,126.991527297365,37.5402662116136,4156704.0731492154,322556.8753310001
279,서울특별시 용산구 주성동,126.999221719448,37.5215725360092,4154615.308081261,323192.5846846454
280,서울특별시 용산구 청암동,126.946678596744,37.5344808673196,4156147.742303664,318580.1551291472
281,서울특별시 용산구 청파동1가,126.967458773793,37.5487674651522,4157693.100419223,320450.65662818984
282,서울특별시 용산구 청파동2가,126.964798233694,37.5465142049804,4157448.1619661595,320210.1912219153
283,서울특별시 용산구 청파동3가,126.966972344614,37.5432460079142,4157081.360023504,320394.4285232269
284,서울특별시 용산구 한강로1가,126.973054361529,37.5339780623764,4156041.3692179136,320909.6197285282
285,서울특별시 용산구 한강로2가,126.968683607087,37.5315623013378,4155781.649556452,320517.60846861487
286,서울특별시 용산구 한강로3가,126.962182447512,37.5276608637794,4155361.173307469,319933.734748453
287,서울특별시 용산구 한남동,127.000552132438,37.53462985578,4156061.657219787,323340.97633923625
288,서울특별시 용산구 효창동,126.9618988792,37.5424588083351,4157003.719465452,319944.2756547368
289,서울특별시 용산구 후암동,126.978150463736,37.5486798277288,4157662.999902028,321395.0251895285
290,서울특별시 은평구 갈현동,126.914367182376,37.6198652831794,4165685.1186864893,315935.390091455
291,서울특별시 은평구 구산동,126.910376186527,37.6117570303253,4164793.2342486526,315563.09301366657
292,서울특별시 은평구 녹번동,126.929919982801,37.6022161609652,4163696.310363757,317264.9333254901
293,서울특별시 은평구 대조동,126.920825111083,37.6141899645266,4165042.713264297,316491.4349145434
294,서울특별시 은평구 불광동,126.937059476367,37.6176523268171,4165395.2797546275,317932.8914084629
295,서울특별시 은평구 수색동,126.893672224269,37.5835205268469,4161692.9704153393,314018.2696994827
296,서울특별시 은평구 신사동,126.908475948726,37.5949214743515,4162928.836657089,315353.7225145908
297,서울특별시 은평구 역촌동,126.915123289569,37.6043976551681,4163967.290722378,315963.9932257582
298,서울특별시 은평구 응암동,126.924109745075,37.5963272964127,4163054.1917181024,316737.52891769464
299,서울특별시 은평구 증산동,126.907039772766,37.5843030609175,4161753.4071375467,315200.6512872564
300,서울특별시 은평구 진관동,126.92106591289,37.6349668825062,4167347.727258986,316563.7819183335
301,서울특별시 종로구 가회동,126.984789014439,37.5801040153772,4161137.281568493,322056.3198630952
302,서울특별시 종로구 견지동,126.9830607214,37.5731913510519,4160373.5160626797,321887.22179664805
303,서울특별시 종로구 경운동,126.98638391579,37.5751883855305,4160588.81306582,322185.47008366784
304,서울특별시 종로구 계동,126.986903381874,37.5824324365828,4161391.642793919,322248.5776342358
305,서울특별시 종로구 공평동,126.983147187221,37.5712668379625,4160159.8046556693,321890.2727775773
306,서울특별시 종로구 관수동,126.99046001346,37.5690620186847,4159901.3110421454,322530.9083346364
307,서울특별시 종로구 관철동,126.985986580353,37.5691048202297,4159914.522487738,322135.9044859603
308,서울특별시 종로구 관훈동,126.984690612471,37.5741286083153,4160474.4258529586,322033.40185766923
309,서울특별시 종로구 교남동,126.964634002163,37.5683831622413,4159875.0967436563,320248.2492394047
310,서울특별시 종로구 교북동,126.96127267528,37.5717842659121,4160258.9288345287,319959.5552190475
311,서울특별시 종로구 구기동,126.959299756836,37.6193739703885,4165543.39018907,319900.1018002979
312,서울특별시 종로구 궁정동,126.973144784748,37.5846825915784,4161667.4605634916,321038.98664270143
313,서울특별시 종로구 권농동,126.991763428362,37.5743239285347,4160482.7191023743,322658.51307044673
314,서울특별시 종로구 낙원동,126.988607627918,37.5725577161916,4160292.70124216,322375.60696113325
315,서울특별시 종로구 내수동,126.971962529742,37.5733081682464,4160407.584808989,320907.33199272666
316,서울특별시 종로구 내자동,126.971717261861,37.5753047140659,4160629.5933427596,320890.4547934857
317,서울특별시 종로구 누상동,126.962264659143,37.5800268845222,4161171.646892489,320067.01185470884
318,서울특별시 종로구 누하동,126.968274190814,37.5792826296465,4161077.563867841,320595.92718801054
319,서울특별시 종로구 당주동,126.974000740279,37.5715715163221,4160210.997558661,321083.1857545404
320,서울특별시 종로구 도렴동,126.974647692606,37.5731610122675,4160386.1388272243,321144.1277854841
321,서울특별시 종로구 돈의동,126.990726790606,37.5719704528881,4160223.5315939994,322561.37432579603
322,서울특별시 종로구 동숭동,127.004872670199,37.5813770980378,4161240.6748364847,323832.8995861608
323,서울특별시 종로구 명륜1가,126.997468304522,37.589107692137,4162112.3928595833,323197.3292456558
324,서울특별시 종로구 명륜2가,126.999030857136,37.584696454401,4161619.9725894528,323324.8696491279
325,서울특별시 종로구 명륜3가,126.993075159072,37.5895652203261,4162171.443688464,322810.5045862907
326,서울특별시 종로구 명륜4가,127.00007245689,37.582231340528,4161344.4799032602,323411.0213989939
327,서울특별시 종로구 묘동,126.991745527678,37.572406610134,4160270.004073602,322652.3831714352
328,서울특별시 종로구 무악동,126.958245677349,37.5759854736855,4160730.911589654,319702.3453786832
329,서울특별시 종로구 봉익동,126.992995267432,37.5721652242241,4160240.860252868,322762.1862075761
330,서울특별시 종로구 부암동,126.964061015983,37.5924142953538,4162542.7424590127,320255.45265814953
331,서울특별시 종로구 사간동,126.980379075036,37.577252619494,4160829.251403085,321660.0750668365
332,서울특별시 종로구 사직동,126.968846056089,37.5761869658796,4160732.969952343,320638.99984601873
333,서울특별시 종로구 삼청동,126.981758302922,37.584997782564,4161686.0514198993,321800.3496855181
334,서울특별시 종로구 서린동,126.980399217074,37.5695112747648,4159970.219140363,321643.3830841252
335,서울특별시 종로구 세종로,126.976778199977,37.5801928107016,4161162.3456995618,321349.0991874825
336,서울특별시 종로구 소격동,126.980908275257,37.5796241227762,4161091.393087449,321712.4680013305
337,서울특별시 종로구 송월동,126.9651946575,37.5700627844638,4160060.3982347054,320301.80585388665
338,서울특별시 종로구 송현동,126.981846349157,37.5767591093554,4160771.7049990473,321788.47784330207
339,서울특별시 종로구 수송동,126.980610942957,37.5736775113542,4160432.110314265,321672.0223551051
340,서울특별시 종로구 숭인동,127.019597569646,37.5745280159937,4160453.1676369156,325117.19703244057
341,서울특별시 종로구 신교동,126.967923271581,37.5844902776103,4161656.0865756846,320577.4418799984
342,서울특별시 종로구 신문로1가,126.973901614207,37.5701731498046,4160056.020953027,321071.0838999719
343,서울특별시 종로구 신문로2가,126.969722233416,37.5706622933598,4160118.267824273,320703.12743244896
344,서울특별시 종로구 신영동,126.961818449159,37.6025046922759,4163666.69542494,320081.7549871865
345,서울특별시 종로구 안국동,126.983607690836,37.5773864591263,4160837.9757270757,321945.5229895873
346,서울특별시 종로구 연건동,126.999669431165,37.5786742164882,4160950.533643594,323367.0238697601
347,서울특별시 종로구 연지동,127.000131313214,37.5737475791242,4160402.9975609356,323396.1725211581
348,서울특별시 종로구 예지동,126.998302077982,37.5696210091493,4159948.548564868,323224.8617421829
349,서울특별시 종로구 옥인동,126.963385995622,37.5835230926996,4161557.446000875,320174.4510682799
350,서울특별시 종로구 와룡동,126.991214588966,37.582342736821,4161373.5366831943,322629.07392376463
351,서울특별시 종로구 운니동,126.98822214942,37.5763742920418,4160716.9242794565,322350.6332862333
352,서울특별시 종로구 원남동,126.997495933473,37.5755207102283,4160604.7061166405,323167.618608756
353,서울특별시 종로구 원서동,126.988266245452,37.5839318329341,4161555.4394536484,322372.49227433326
354,서울특별시 종로구 이화동,127.004338052474,37.5769946840179,4160755.3986181235,323775.3549236838
355,서울특별시 종로구 익선동,126.989694095817,37.5743345779564,4160487.810518084,322475.7822812913
356,서울특별시 종로구 인사동,126.986049484352,37.5717032982693,4160202.734935332,322147.64249813464
357,서울특별시 종로구 인의동,126.997668102599,37.5723311920992,4160250.4680075515,323175.27859942755
358,서울특별시 종로구 장사동,126.994023346762,37.5692172240881,4159911.805818572,322845.99912663264
359,서울특별시 종로구 재동,126.985246741088,37.578302085465,4160936.468731545,322092.4519284137
360,서울특별시 종로구 적선동,126.973773044297,37.5752799608429,4160622.927698671,321071.95305453683
361,서울특별시 종로구 종로1가,126.980149990907,37.5702572573332,4160053.4680262804,321623.1508477429
362,서울특별시 종로구 종로2가,126.988250180457,37.570889038138,4160108.218011935,322340.0719083799
363,서울특별시 종로구 종로3가,126.992329841579,37.5703884202892,4160044.959218258,322699.202319551
364,서울특별시 종로구 종로4가,126.999764551274,37.5707454633722,4160070.5680534756,323356.6871308896
365,서울특별시 종로구 종로5가,127.003527196401,37.5706048556462,4160047.895893107,323688.67428094195
366,서울특별시 종로구 종로6가,127.007584281884,37.5718912859017,4160183.0314790905,324050.02653478977
367,서울특별시 종로구 중학동,126.979641505392,37.5752847227306,4160612.290821423,321590.2405267013
368,서울특별시 종로구 창성동,126.972462474485,37.580545072399,4161209.65330573,320968.82260007894
369,서울특별시 종로구 창신동,127.012828195947,37.5752245135613,4160543.079409702,324520.9892595246
370,서울특별시 종로구 청운동,126.969329763593,37.5891974378629,4162175.7168940976,320712.93811743066
371,서울특별시 종로구 청진동,126.98015420508,37.5714393638425,4160184.6287151133,321626.34372579784
372,서울특별시 종로구 체부동,126.970869610418,37.5775894297459,4160884.7271970934,320821.0714380204
373,서울특별시 종로구 충신동,127.00595899872,37.57494755381,4160525.2054313333,323913.6828433196
374,서울특별시 종로구 통의동,126.972852824323,37.5780584194585,4160932.9848962035,320997.33799911424
375,서울특별시 종로구 통인동,126.97021199276,37.5801444847072,4161169.496559739,320769.12323747936
376,서울특별시 종로구 팔판동,126.980676503591,37.5828099987492,4161445.344300004,321699.60196427326
377,서울특별시 종로구 평동,126.966843743393,37.5678972658597,4159816.9539278364,320442.255023799
378,서울특별시 종로구 평창동,126.968357810931,37.6063916960376,4164085.491005902,320668.40878163744
379,서울특별시 종로구 필운동,126.967749538039,37.5778012532177,4160914.1896567056,320546.03749686136
380,서울특별시 종로구 행촌동,126.962272567935,37.5733270930886,4160428.207901937,320051.5797713796
381,서울특별시 종로구 혜화동,127.00060686405,37.5868624440018,4161857.3500388707,323469.15514480683
382,서울특별시 종로구 홍지동,126.956587544473,37.6007910021228,4163486.580651128,319615.8124235547
383,서울특별시 종로구 홍파동,126.963967103183,37.5711327985698,4160181.4786832994,320195.9596677862
384,서울특별시 종로구 화동,126.982696745397,37.5806911752016,4161206.4010050646,321872.9517992572
385,서울특별시 종로구 효자동,126.971931855344,37.5826496685118,4161444.1956573725,320927.0075475895
386,서울특별시 종로구 효제동,127.003056381131,37.5725942661178,4160269.5276756664,323651.7847789946
387,서울특별시 종로구 훈정동,126.994172362099,37.5743637157987,4160482.5876696184,322871.35573125957
388,서울특별시 중구 광희동1가,127.006451724415,37.5652239855073,4159445.341411354,323934.29913743515
389,서울특별시 중구 광희동2가,127.008407470182,37.5639300318235,4159298.098656062,324104.000346064
390,서울특별시 중구 남대문로1가,126.982862710392,37.5678610341137,4159782.4302241635,321857.0321471838
391,서울특별시 중구 남대문로2가,126.982030616216,37.5636983086304,4159322.105632068,321773.6156197954
392,서울특별시 중구 남대문로3가,126.980319690106,37.5620113703841,4159138.1677591195,321618.466775789
393,서울특별시 중구 남대문로4가,126.975457960662,37.5601075547158,4158936.160373302,321184.47213878774
394,서울특별시 중구 남대문로5가,126.97429533532,37.5575773074594,4158657.613453973,321075.71999561915
395,서울특별시 중구 남산동1가,126.984580460713,37.5593342411289,4158833.0268175183,321988.4528806547
396,서울특별시 중구 남산동2가,126.986396022059,37.5584190512113,4158728.0372109176,322146.652687586
397,서울특별시 중구 남산동3가,126.987762834453,37.5607185451526,4158980.6057833643,322272.85529227584
398,서울특별시 중구 남창동,126.977559311953,37.5576969045759,4158664.672769906,321364.33376527944
399,서울특별시 중구 남학동,126.990814223458,37.5605530385661,4158956.472315705,322541.99951756716
400,서울특별시 중구 다동,126.981173875618,37.5678932127318,4159789.2053123,321707.9438971239
401,서울특별시 중구 만리동1가,126.967288060049,37.5561628100871,4158514.0270340424,320453.32602165226
402,서울특별시 중구 만리동2가,126.963956968884,37.5545760844191,4158344.332335105,320155.247988779
403,서울특별시 중구 명동1가,126.984638297227,37.5642861263306,4159382.386300813,322005.349041968
404,서울특별시 중구 명동2가,126.98522714432,37.5628878550789,4159226.1162074953,322054.033423327
405,서울특별시 중구 무교동,126.978995985222,37.5681523321125,4159822.094083661,321516.2020941345
406,서울특별시 중구 무학동,127.015271168107,37.5643582177781,4159332.7802085537,324711.26383713074
407,서울특별시 중구 묵정동,127.000371238419,37.5614543921107,4159038.476998224,323388.3247687994
408,서울특별시 중구 방산동,127.002956612022,37.5687055728614,4159838.2200991646,323633.7992700867
409,서울특별시 중구 봉래동1가,126.972922937607,37.5595051345956,4158874.143201886,320959.10247057496
410,서울특별시 중구 봉래동2가,126.970968346946,37.556538587309,4158548.6968500013,320779.33645755646
411,서울특별시 중구 북창동,126.978042381175,37.5622200000299,4159165.6446063835,321417.80767264205
412,서울특별시 중구 산림동,126.995508543908,37.5677288451172,4159743.852724491,322973.6510696468
413,서울특별시 중구 삼각동,126.984225497316,37.5680810670242,4159804.26157783,321977.92312598904
414,서울특별시 중구 서소문동,126.97389954989,37.5631129454112,4159272.6114480896,321054.00430640316
415,서울특별시 중구 소공동,126.97979400965,37.5638997702148,4159348.7061845087,321576.53880263295
416,서울특별시 중구 수표동,126.989500354867,37.5674509569575,4159724.35877006,322442.3225318545
417,서울특별시 중구 수하동,126.984624102223,37.5672666194383,4159713.1336618816,322011.1905273099
418,서울특별시 중구 순화동,126.970694369794,37.5625571795011,4159217.0533850077,320769.55877466424
419,서울특별시 중구 신당동,127.013699579173,37.5613238543623,4158999.017795152,324565.32995284407
420,서울특별시 중구 쌍림동,127.004210503561,37.5635266097209,4159261.2017331077,323732.3375285823
421,서울특별시 중구 예관동,126.998189014062,37.5642150321273,4159348.9063779106,323202.09273797285
422,서울특별시 중구 예장동,126.990086044965,37.5552118678547,4158365.18417274,322464.9992167974
423,서울특별시 중구 오장동,127.000692708562,37.5649106130902,4159421.379554059,323424.882373472
424,서울특별시 중구 을지로1가,126.980508795796,37.5660118254225,4159581.705978384,321644.7131920854
425,서울특별시 중구 을지로2가,126.984004114817,37.5658609834049,4159558.3369741384,321953.0828945227
426,서울특별시 중구 을지로3가,126.992696980394,37.5664564985185,4159607.9740191223,322722.30512462585
427,서울특별시 중구 을지로4가,126.998754909258,37.5664927576673,4159600.581042204,323257.4614887917
428,서울특별시 중구 을지로5가,127.002431326396,37.5666080666787,4159606.4644130724,323582.4551830503
429,서울특별시 중구 을지로6가,127.00663305138,37.5677719920145,4159727.731624165,323956.31472125824
430,서울특별시 중구 을지로7가,127.009743356347,37.5661499837089,4159541.9265272524,324227.2158812715
431,서울특별시 중구 의주로1가,126.968063019077,37.5647873639982,4159469.5428725453,320542.4823983358
432,서울특별시 중구 의주로2가,126.969567667479,37.561054032064,4159052.4117200756,320666.43163010903
433,서울특별시 중구 인현동1가,126.993729503193,37.5637139255338,4159301.7057774644,322807.0041479368
434,서울특별시 중구 인현동2가,126.996124490655,37.5642041704529,4159351.5889438605,323019.71117677365
435,서울특별시 중구 입정동,126.992728541874,37.5678115982333,4159758.27840192,322728.3058528495
436,서울특별시 중구 장교동,126.986865292475,37.5672452661542,4159706.5195884267,322209.0925545889
437,서울특별시 중구 장충동1가,127.007325089464,37.560654080316,4158936.622492916,324000.6851750611
438,서울특별시 중구 장충동2가,127.000602078813,37.5550176670288,4158323.8159374553,323393.5163415723
439,서울특별시 중구 저동1가,126.987789395082,37.5644126337617,4159390.4573348295,322283.9810690326
440,서울특별시 중구 저동2가,126.989776983466,37.5642218113844,4159365.5248024357,322459.08805944846
441,서울특별시 중구 정동,126.973133171996,37.5665870147753,4159659.560842533,320994.6275321153
442,서울특별시 중구 주교동,126.999357065301,37.5682515063245,4159794.6014103685,323314.80362786946
443,서울특별시 중구 주자동,126.989388129589,37.5606394146993,4158968.751658458,322416.2338623409
444,서울특별시 중구 중림동,126.966186646494,37.5591682266788,4158849.619127445,320363.2479035648
445,서울특별시 중구 초동,126.992181048279,37.5644057983172,4159381.3990907324,322671.87155431986
446,서울특별시 중구 충무로1가,126.982162451405,37.5614350253016,4159070.7178465417,321779.86638296605
447,서울특별시 중구 충무로2가,126.989609769072,37.5620485933126,4159124.6972669456,322439.157880628
448,서울특별시 중구 충무로3가,126.991307446764,37.5626722201464,4159190.6882178173,322590.59493154404
449,서울특별시 중구 충무로4가,126.994327234401,37.5622651534104,4159139.820563583,322856.3690346612
450,서울특별시 중구 충무로5가,126.99982795883,37.5631302462416,4159225.4535521646,323344.2951142051
451,서울특별시 중구 충정로1가,126.968270553351,37.566510124401,4159660.307239182,320564.9479701234
452,서울특별시 중구 태평로1가,126.977234843742,37.5677087157565,4159776.217773438,321359.59118941514
453,서울특별시 중구 태평로2가,126.976357967863,37.5629837198074,4159253.5918664443,321270.847285793
454,서울특별시 중구 필동1가,126.992453032787,37.561075732851,4159011.3766992516,322687.9993269803
455,서울특별시 중구 필동2가,126.994626250771,37.5593207097698,4158812.5371357,322875.80747699866
456,서울특별시 중구 필동3가,126.997003047238,37.5584990846546,4158716.889874839,323083.81606617605
457,서울특별시 중구 황학동,127.021415848975,37.5674999372119,4159669.9398146654,325261.3526920414
458,서울특별시 중구 회현동1가,126.981204133005,37.5555892070291,4158423.875057897,321681.2786078039
459,서울특별시 중구 회현동2가,126.982919122029,37.5587537703497,4158771.766225125,321840.31693530467
460,서울특별시 중구 회현동3가,126.984059661953,37.5601522772217,4158924.784373571,321944.3961891146
461,서울특별시 중구 흥인동,127.016358403205,37.5672917152733,4159656.256006785,324814.170357053
462,서울특별시 중랑구 망우동,127.103962394815,37.5955130359785,4162627.910048726,332614.9114976416
463,서울특별시 중랑구 면목동,127.087661590766,37.5803715762431,4160977.0013103285,331141.4964158281
464,서울특별시 중랑구 묵동,127.079182031593,37.6123807746798,4164544.041392582,330465.35555406765
465,서울특별시 중랑구 상봉동,127.088754299651,37.596768819552,4162794.479205076,331275.0265516982
466,서울특별시 중랑구 신내동,127.09936528756,37.6058747809887,4163785.8593836837,332232.3131883629
467,서울특별시 중랑구 중화동,127.077320262185,37.5994618167452,4163113.9097010996,330271.6512963646
468,부산광역시 강서구 강동동,128.935271405931,35.2145168459059,3896834.5076593775,494108.864710063
469,부산광역시 강서구 구랑동,128.851693901348,35.1294067301993,3887403.994926912,486488.1585383938
470,부산광역시 강서구 녹산동,128.882378803698,35.119139642914,3886261.65659601,489282.448970004
471,부산광역시 강서구 눌차동,128.851121269929,35.0652927105229,3880293.9492223505,486425.3647001256
472,부산광역시 강서구 대저1동,128.97681509437,35.2154530980837,3896936.665469662,497889.89949629904
473,부산광역시 강서구 대저2동,128.956533692717,35.1785857250469,3892848.6995475753,496042.2642855025
474,부산광역시 강서구 대항동,128.83082681259,35.0081787107857,3873963.126521225,484564.1952341614
475,부산광역시 강서구 동선동,128.840631468634,35.0462492955332,3878183.562761223,485465.53879753023
476,부산광역시 강서구 명지동,128.926450851828,35.1082274493664,3885047.65868142,493297.36682523333
477,부산광역시 강서구 미음동,128.857879021468,35.1511463498995,3889814.07267487,487055.1136734452
478,부산광역시 강서구 범방동,128.883192222592,35.1491260748853,3889587.026711204,489360.4686786185
479,부산광역시 강서구 봉림동,128.894623950148,35.1774506998519,3892727.044171775,490405.0643955174
480,부산광역시 강서구 생곡동,128.877791681411,35.1305010488128,3887522.123517411,488866.0200151741
481,부산광역시 강서구 성북동,128.813853440238,35.0534010697009,3878980.9037539805,483024.851061167
482,부산광역시 강서구 송정동,128.849317899227,35.092817978428,3883346.687205952,486265.548375927
483,부산광역시 강서구 식만동,128.911767804559,35.2111486875336,3896462.624940749,491969.40225861606
484,부산광역시 강서구 신호동,128.878751702628,35.0905268830916,3883088.9492712882,488948.0886516229
485,부산광역시 강서구 죽동동,128.881705241387,35.2003982058467,3895273.239399008,489231.7885973485
486,부산광역시 강서구 죽림동,128.898529239691,35.2033978036111,3895604.201622224,490763.59453809465
487,부산광역시 강서구 지사동,128.823584206032,35.1437260956391,3888996.1725099357,483929.9577323455
488,부산광역시 강서구 천성동,128.826866581092,35.0304589495977,3876434.5513121253,484207.1374476831
489,부산광역시 강서구 화전동,128.864474254255,35.1029676857009,3884470.286762835,487648.5595802243
490,부산광역시 금정구 구서동,129.07614591559,35.2553544296302,3901364.1543000047,506926.78621792956
491,부산광역시 금정구 금사동,129.111130197749,35.2202784156162,3897477.2044501537,510113.56526200037
492,부산광역시 금정구 금성동,129.056142876022,35.2503324603387,3900806.0010930942,505107.4790349595
493,부산광역시 금정구 남산동,129.092262111544,35.2716577535563,3903173.4541554437,508391.15208457626
494,부산광역시 금정구 노포동,129.088002246612,35.2913113631609,3905352.7151090787,508001.7876490995
495,부산광역시 금정구 두구동,129.111673020789,35.2945516545984,3905714.235481093,510153.69826986245
496,부산광역시 금정구 부곡동,129.096413857004,35.2376380106209,3899400.99238603,508772.4140686403
497,부산광역시 금정구 서동,129.103607522202,35.2184737614791,3897276.3279101313,509429.1616867624
498,부산광역시 금정구 선동,129.109685369785,35.2662438049591,3902574.653387726,509976.4452884121
499,부산광역시 금정구 오륜동,129.122694820097,35.2519332019951,3900988.9781768,511161.6838133355
500,부산광역시 금정구 장전동,129.072491624188,35.2347159155634,3899075.079333666,506596.0363659294
501,부산광역시 금정구 청룡동,129.065300439049,35.2846110827582,3904608.0485075032,505938.0673726098
502,부산광역시 금정구 회동동,129.123839171603,35.2334758158297,3898942.169754896,511268.33977360104
503,부산광역시 기장군 기장읍,129.215860749696,35.2387136286813,3899537.3673841506,519640.2897401231
504,부산광역시 기장군 일광면,129.232246160756,35.2639536234857,3902339.8746772152,521124.58549325087
505,부산광역시 기장군 장안읍,129.244032506085,35.3139344614988,3907885.4138561324,522183.0082517193
506,부산광역시 기장군 정관읍,129.18029849757,35.3255215005655,3909158.041171637,516387.12307398533
507,부산광역시 기장군 철마면,129.149739538284,35.2753211363779,3903586.10320943,513618.0599484822
508,부산광역시 남구 감만동,129.080913164455,35.1131135578819,3885590.0398809514,507373.2859460535
509,부산광역시 남구 대연동,129.09146973801,35.1378939446187,3888338.9811044685,508332.73933699884
510,부산광역시 남구 문현동,129.072124227665,35.1433269924834,3888940.0515584704,506569.95895764837
511,부산광역시 남구 용당동,129.095040714388,35.1176498740348,3886094.246941568,508660.1921848416
512,부산광역시 남구 용호동,129.116007443618,35.1139656623746,3885687.6979123126,510571.17537266423
513,부산광역시 남구 우암동,129.075854463096,35.1250127857502,3886909.2826181734,506911.30204080447
514,부산광역시 동구 범일동,129.060882282368,35.1329319076031,3887786.565438987,505546.6096285295
515,부산광역시 동구 수정동,129.036633280085,35.1326931627434,3887759.00707979,503337.4420428002
516,부산광역시 동구 좌천동,129.049211885,35.1314104550705,3887617.250589715,504483.4749273317
517,부산광역시 동구 초량동,129.033586449747,35.1213355196694,3886499.363256118,503060.2881264288
518,부산광역시 동래구 낙민동,129.092216709084,35.1965209826522,3894840.742002844,508394.76004505635
519,부산광역시 동래구 명륜동,129.08155822834,35.2124857123219,3896610.382188298,507423.03385275055
520,부산광역시 동래구 명장동,129.104511347999,35.2049949172739,3895781.6083343453,509512.98969035526
521,부산광역시 동래구 복천동,129.088519327079,35.2064686574347,3895943.63251682,508057.19382092985
522,부산광역시 동래구 사직동,129.055523395593,35.1989699840999,3895109.8536380697,505054.30690842576
523,부산광역시 동래구 수안동,129.085876890287,35.1967385356112,3894864.351601533,507817.6065754643
524,부산광역시 동래구 안락동,129.106558871146,35.1941527342993,3894579.4090068503,509700.65152385074
525,부산광역시 동래구 온천동,129.066706270938,35.2118823526351,3896542.4610570758,506071.3255088639
526,부산광역시 동래구 칠산동,129.091985265468,35.204274876575,3895700.628693323,508372.8952491171
527,부산광역시 부산진구 가야동,129.032581642818,35.1479801623861,3889454.1883158474,502967.76636953425
528,부산광역시 부산진구 개금동,129.017916186161,35.1606615344224,3890860.2012512223,501631.6796703013
529,부산광역시 부산진구 당감동,129.01807631278,35.1728246466468,3892209.0839788043,501646.0177672223
530,부산광역시 부산진구 범전동,129.061257717948,35.1657350620611,3891424.4219968496,505578.5740971496
531,부산광역시 부산진구 범천동,129.049705672836,35.1500526395981,3889684.6686575576,504527.42940602475
532,부산광역시 부산진구 부암동,129.030694924367,35.1785361380042,3892842.7667852985,502794.86521420715
533,부산광역시 부산진구 부전동,129.058076204432,35.1561936023553,3890366.108288894,505289.45991952246
534,부산광역시 부산진구 양정동,129.07432099535,35.1710811495463,3892018.110091606,506767.7685600199
535,부산광역시 부산진구 연지동,129.052840043371,35.1727845612254,3892205.767029196,504811.5839580669
536,부산광역시 부산진구 전포동,129.071226616738,35.157256269615,3890484.735319937,506487.0879556344
537,부산광역시 부산진구 초읍동,129.047278314668,35.1813784873021,3893158.5738670626,504304.6830329298
538,부산광역시 북구 구포동,129.008888072412,35.1981560740703,3895018.2156861243,500809.0912150237
539,부산광역시 북구 금곡동,129.012818480406,35.2500842483244,3900777.1052394263,501166.1375543732
540,부산광역시 북구 덕천동,129.014529045675,35.2131838661402,3896684.857846742,501322.3517093134
541,부산광역시 북구 만덕동,129.038728928443,35.2145376863012,3896835.5869365856,503524.8299693786
542,부산광역시 북구 화명동,129.013861621487,35.2357636793339,3899188.957542624,501261.2571010584
543,부산광역시 사상구 감전동,128.979410354417,35.1542462143787,3890148.7952396073,498124.69330949755
544,부산광역시 사상구 괘법동,128.987191072181,35.1637613818596,3891203.899943836,498833.49760237464
545,부산광역시 사상구 덕포동,128.987960251921,35.1755216967939,3892508.1019790424,498903.70425902813
546,부산광역시 사상구 모라동,129.003943217684,35.1833146881081,3893372.2814738816,500359.0208147585
547,부산광역시 사상구 삼락동,128.977752365755,35.1769469026271,3892666.3167129788,497974.2465555526
548,부산광역시 사상구 엄궁동,128.972201277422,35.1286945870537,3887315.3102130727,497467.298595633
549,부산광역시 사상구 주례동,129.006097664426,35.1521705842909,3889918.432932516,500555.38990133104
550,부산광역시 사상구 학장동,128.987296537566,35.1440995880535,3889023.4250572957,498842.82392254134
551,부산광역시 사하구 감천동,129.006993225079,35.0924617954664,3883296.826809722,500637.42469019856
552,부산광역시 사하구 괴정동,128.995052763432,35.1037002076552,3884543.1330147963,499549.1267634943
553,부산광역시 사하구 구평동,128.987803598338,35.0819025270148,3882125.8728719205,498888.1682631781
554,부산광역시 사하구 다대동,128.967656104235,35.060278219962,3879728.201451009,497050.7319877748
555,부산광역시 사하구 당리동,128.976677476741,35.1029415185007,3884459.233412239,497874.449921766
556,부산광역시 사하구 신평동,128.96525131852,35.0916245823035,3883204.5114331897,496832.66388499155
557,부산광역시 사하구 장림동,128.970527123964,35.0742973837696,3881282.809639677,497312.9845069575
558,부산광역시 사하구 하단동,128.952594462617,35.1148094646082,3885776.146359669,495680.21697595477
559,부산광역시 서구 남부민동,129.02224992503,35.086548807399,3882641.2932234867,502028.2023269
560,부산광역시 서구 동대신동1가,129.022741461813,35.1103497011696,3885280.7749579777,502072.40621688263
561,부산광역시 서구 동대신동2가,129.02454718188,35.1147172790818,3885765.170818745,502236.8402899548
562,부산광역시 서구 동대신동3가,129.021637931999,35.1230314246327,3886687.134618694,501971.5371429152
563,부산광역시 서구 부민동1가,129.020649429831,35.1046819610604,3884652.191431831,501881.8917519034
564,부산광역시 서구 부민동2가,129.019239535702,35.1026507777417,3884426.91134126,501753.44413824676
565,부산광역시 서구 부민동3가,129.016262346677,35.1037637358332,3884550.2879284364,501482.0902781392
566,부산광역시 서구 부용동1가,129.021076576986,35.1068809177593,3884896.0597876455,501920.7683433828
567,부산광역시 서구 부용동2가,129.019051610724,35.1065902492338,3884863.7880192087,501736.2335763471
568,부산광역시 서구 서대신동1가,129.014673371465,35.1078166229779,3884999.7230814197,501337.2107427332
569,부산광역시 서구 서대신동2가,129.009801275895,35.1091231262845,3885144.5573888347,500893.1936507535
570,부산광역시 서구 서대신동3가,129.010801321617,35.1239326978437,3886786.9236177346,500984.1500592319
571,부산광역시 서구 아미동1가,129.019036333767,35.0993919013628,3884065.50474641,501734.9938570827
572,부산광역시 서구 아미동2가,129.013600222447,35.0995003652555,3884077.452040249,501239.53862988605
573,부산광역시 서구 암남동,129.020968156488,35.0799230863579,3881906.4905025708,501911.51666934136
574,부산광역시 서구 초장동,129.020289958305,35.0959825827774,3883687.4407150224,501849.32765736
575,부산광역시 서구 충무동1가,129.024798164577,35.0959614220744,3883685.186991615,502260.22857833625
576,부산광역시 서구 충무동2가,129.022204730611,35.0953738966942,3883619.9758841414,502023.86456674366
577,부산광역시 서구 충무동3가,129.022693165699,35.0938409540338,3883449.985738732,502068.42201137316
578,부산광역시 서구 토성동1가,129.023338024929,35.0995256297373,3884080.4183210614,502127.05158415093
579,부산광역시 서구 토성동2가,129.021640484639,35.1009417706496,3884237.4306498007,501972.30190695747
580,부산광역시 서구 토성동3가,129.020434458879,35.1013043298984,3884277.6145576946,501862.3771329843
581,부산광역시 서구 토성동4가,129.023387652983,35.0974520944836,3883850.468458,502131.6287063815
582,부산광역시 서구 토성동5가,129.02159280201,35.0975901873532,3883865.745758659,501968.03668053076
583,부산광역시 수영구 광안동,129.109517930176,35.158289496222,3890602.4867287115,509974.4109731221
584,부산광역시 수영구 남천동,129.110376365895,35.1427566802985,3888879.9989621197,510054.5040569964
585,부산광역시 수영구 망미동,129.101004990512,35.1742365026598,3892370.178415341,509197.29399963986
586,부산광역시 수영구 민락동,129.125445942114,35.1572648406799,3890490.5660936725,511425.20818505844
587,부산광역시 수영구 수영동,129.116107846731,35.1705527261101,3891963.15068103,510573.0046082415
588,부산광역시 연제구 거제동,129.071677580761,35.1892144284113,3894028.9055176997,506525.60622724844
589,부산광역시 연제구 연산동,129.085536368166,35.1825602536423,3893291.957435303,507787.9606705473
590,부산광역시 영도구 남항동1가,129.038835356146,35.0904163792335,3883070.6617926857,503539.88800860813
591,부산광역시 영도구 남항동2가,129.037640183788,35.088562032749,3882864.976967257,503431.0243094843
592,부산광역시 영도구 남항동3가,129.036064478404,35.0860399859303,3882585.234406562,503287.4948655174
593,부산광역시 영도구 대교동1가,129.038315245311,35.0924257351993,3883293.476762633,503492.3936309379
594,부산광역시 영도구 대교동2가,129.040792715449,35.0918793882843,3883232.977662117,503718.2371962268
595,부산광역시 영도구 대평동1가,129.035233523005,35.0914249488508,3883182.388021899,503211.53716192034
596,부산광역시 영도구 대평동2가,129.032755038217,35.0922848086516,3883277.6676008506,502985.59181704774
597,부산광역시 영도구 동삼동,129.071639310245,35.0777484249153,3881667.4711063015,506531.0167178407
598,부산광역시 영도구 봉래동1가,129.040247899626,35.0943037075615,3883501.8094193055,503668.46890713647
599,부산광역시 영도구 봉래동2가,129.043096286733,35.0954380654762,3883627.715943707,503928.0360089628
600,부산광역시 영도구 봉래동3가,129.044537243697,35.0925480349772,3883307.275286913,504059.5161046199
601,부산광역시 영도구 봉래동4가,129.050295447046,35.0909620285588,3883131.6402256945,504584.4582058748
602,부산광역시 영도구 봉래동5가,129.053367551921,35.0922725946945,3883277.1248750477,504864.4044902197
603,부산광역시 영도구 신선동1가,129.046619051669,35.0903861310098,3883067.6114866612,504249.38255222194
604,부산광역시 영도구 신선동2가,129.046266889952,35.0868234287964,3882672.5005723247,504217.4659863127
605,부산광역시 영도구 신선동3가,129.051265425657,35.0815373696274,3882086.511397373,504673.40985232923
606,부산광역시 영도구 영선동1가,129.043520252277,35.0909863292586,3883134.0444662226,503966.8941823485
607,부산광역시 영도구 영선동2가,129.042768675858,35.088108031219,3882814.817749489,503898.52455558744
608,부산광역시 영도구 영선동3가,129.041041141533,35.0860103601602,3882582.124434428,503741.14912291797
609,부산광역시 영도구 영선동4가,129.048407670117,35.0768563301435,3881567.2648256132,504413.14590467507
610,부산광역시 영도구 청학동,129.063943764121,35.0921902835616,3883268.5641020774,505828.4227282096
611,부산광역시 중구 광복동1가,129.034561062695,35.0987790136637,3883997.917249478,503149.9595368588
612,부산광역시 중구 광복동2가,129.032560417669,35.0994614289035,3884073.5343359555,502967.5922923652
613,부산광역시 중구 광복동3가,129.03135006866,35.10070731987,3884211.665822391,502857.23627782206
614,부산광역시 중구 남포동1가,129.034658826808,35.0974184009101,3883847.0311085153,503158.9224211763
615,부산광역시 중구 남포동2가,129.033409791904,35.0979872776692,3883910.079518984,503045.0600095887
616,부산광역시 중구 남포동3가,129.029749666456,35.098960620929,3884017.915627376,502711.43390719424
617,부산광역시 중구 남포동4가,129.031546247837,35.0974778242666,3883853.526800783,502875.22937483387
618,부산광역시 중구 남포동5가,129.029535333442,35.097745820822,3883883.190908299,502691.93917071004
619,부산광역시 중구 남포동6가,129.026775367304,35.0975216541884,3883858.2602047077,502440.3942243835
620,부산광역시 중구 대창동1가,129.035729466429,35.1069600760949,3884905.2190046133,503256.1246887579
621,부산광역시 중구 대창동2가,129.037093802432,35.1097848556474,3885218.527389914,503380.34375181445
622,부산광역시 중구 대청동1가,129.03274412158,35.1050924911827,3884698.0138048916,502984.1300487166
623,부산광역시 중구 대청동2가,129.031223599504,35.1030344708383,3884469.738753623,502845.6290422696
624,부산광역시 중구 대청동3가,129.029280652244,35.1030417876892,3884470.4964140933,502668.5541740986
625,부산광역시 중구 대청동4가,129.030456934028,35.1071386511336,3884924.863039817,502775.6182174237
626,부산광역시 중구 동광동1가,129.03571709182,35.0994084469216,3884067.7573065204,503255.2971659918
627,부산광역시 중구 동광동2가,129.034475020391,35.100258384387,3884161.9738286813,503142.06071999366
628,부산광역시 중구 동광동3가,129.034100764015,35.1014361933045,3884292.5788059533,503107.9062111732
629,부산광역시 중구 동광동4가,129.034133547977,35.1032848526728,3884497.592603217,503110.82387329097
630,부산광역시 중구 동광동5가,129.034229294329,35.1074899251665,3884963.930295322,503119.38967915473
631,부산광역시 중구 보수동1가,129.025783364202,35.1074151266678,3884955.403452733,502349.6959121707
632,부산광역시 중구 보수동2가,129.023683878973,35.1049990070193,3884687.412760274,502158.4287979809
633,부산광역시 중구 보수동3가,129.022412453908,35.1041370790951,3884591.799771994,502042.57905599184
634,부산광역시 중구 부평동1가,129.027227791575,35.1021533411539,3884371.9163433677,502481.48929434054
635,부산광역시 중구 부평동2가,129.025729875723,35.0995830013551,3884086.834393655,502345.04568630975
636,부산광역시 중구 부평동3가,129.024400861332,35.1008235986556,3884224.3837297186,502223.88433969894
637,부산광역시 중구 부평동4가,129.022693722765,35.1023841027859,3884397.4038454234,502068.25702381897
638,부산광역시 중구 신창동1가,129.030412772911,35.1018224602478,3884335.3062499394,502771.77366282744
639,부산광역시 중구 신창동2가,129.029477305905,35.1012433536222,3884271.0588242714,502686.53562559333
640,부산광역시 중구 신창동3가,129.028934478609,35.1005783633467,3884197.298197484,502637.0842386076
641,부산광역시 중구 신창동4가,129.028200953566,35.1005365708055,3884192.644319379,502570.23218104255
642,부산광역시 중구 영주동,129.03199111519,35.1118639237961,3885448.9311386044,502915.2637915079
643,부산광역시 중구 중앙동1가,129.035759822646,35.100773909347,3884219.1858084803,503259.1373594988
644,부산광역시 중구 중앙동2가,129.035684804276,35.102166582279,3884373.628089452,503252.2448996926
645,부산광역시 중구 중앙동3가,129.035665348977,35.1035006464904,3884521.5726263984,503250.4188233751
646,부산광역시 중구 중앙동4가,129.038915420403,35.1080708290432,3885028.5082507376,503546.4213479245
647,부산광역시 중구 중앙동5가,129.037268273125,35.1018155511404,3884334.7522439794,503396.5737934032
648,부산광역시 중구 중앙동6가,129.037344021352,35.0995721571252,3884085.9668057305,503403.57061314274
649,부산광역시 중구 중앙동7가,129.036581874417,35.0976744773687,3883875.4921256965,503334.1850517968
650,부산광역시 중구 창선동1가,129.030682873728,35.0994496463902,3884072.1733744396,502796.4712683195
651,부산광역시 중구 창선동2가,129.02831625311,35.0995253244018,3884080.5020604474,502580.77243946
652,부산광역시 해운대구 반송동,129.154119351895,35.2189368500509,3897333.647110756,514026.0892985371
653,부산광역시 해운대구 반여동,129.130232464088,35.2061309543907,3895910.3598748497,511854.0520840638
654,부산광역시 해운대구 석대동,129.137114700442,35.2240684642432,3897900.476757633,512477.74396743963
655,부산광역시 해운대구 송정동,129.203669439395,35.1836575939926,3893429.293134116,518543.56492100866
656,부산광역시 해운대구 우동,129.148399576019,35.1727271517264,3892208.203053677,513513.19401550223
657,부산광역시 해운대구 재송동,129.127939014337,35.1855603344596,3893628.809420891,511648.2330544373
658,부산광역시 해운대구 좌동,129.174726496616,35.1870826469031,3893804.1167800203,515907.71590835013
659,부산광역시 해운대구 중동,129.1782523858,35.1589578525344,3890685.65951987,516234.31536998606
660,대구광역시 남구 대명동,128.568889686389,35.8400474627363,3966293.3803748246,461066.62491241144
661,대구광역시 남구 봉덕동,128.597908299005,35.8455729454257,3966895.06847618,463689.81513286685
662,대구광역시 남구 이천동,128.599439448938,35.8536953182678,3967795.3755514757,463831.7722615694
663,대구광역시 달서구 갈산동,128.498805404238,35.8388046313657,3966185.6863360875,454736.5918032889
664,대구광역시 달서구 감삼동,128.542168596711,35.8510162146677,3967520.9176184987,458659.132623826
665,대구광역시 달서구 대곡동,128.526810802352,35.7993344944605,3961795.363619593,457244.6483446971
666,대구광역시 달서구 대천동,128.48725689576,35.8255929053699,3964725.738684233,453685.948159234
667,대구광역시 달서구 도원동,128.532179565126,35.8074811635163,3962696.5980006075,457734.06627907837
668,대구광역시 달서구 두류동,128.555402199963,35.8537184722864,3967815.1212724783,459855.459079444
669,대구광역시 달서구 본동,128.541046504677,35.8344421692017,3965683.1180427414,458549.1876206362
670,대구광역시 달서구 본리동,128.543094223454,35.8409762939102,3966406.9702783455,458737.51428005967
671,대구광역시 달서구 상인동,128.545280592943,35.8140108485551,3963415.2446465087,458921.0692616344
672,대구광역시 달서구 성당동,128.549551926913,35.8429586241896,3966624.1320936577,459321.7159492783
673,대구광역시 달서구 송현동,128.553382094845,35.8293738401133,3965115.822040802,459660.7299592322
674,대구광역시 달서구 신당동,128.498821737463,35.8589615482179,3968421.346207686,454749.52005555166
675,대구광역시 달서구 용산동,128.531153884197,35.8565964722084,3968144.5520196976,457667.4951058588
676,대구광역시 달서구 월성동,128.522529469033,35.8195928330291,3964044.1401855643,456868.75827716023
677,대구광역시 달서구 월암동,128.506721071857,35.8308655380992,3965301.5061812545,455447.03130028275
678,대구광역시 달서구 유천동,128.514337755002,35.8140262284258,3963430.374158494,456125.70974023367
679,대구광역시 달서구 이곡동,128.510691792546,35.8516504641555,3967605.0236199065,455817.1978348856
680,대구광역시 달서구 장기동,128.530035888982,35.8433493267253,3966675.755523784,457559.49128009065
681,대구광역시 달서구 장동,128.513215912198,35.8395540012006,3966262.231186376,456038.4433968502
682,대구광역시 달서구 죽전동,128.539803629301,35.8557902191326,3968051.4189650672,458448.07241280534
683,대구광역시 달서구 진천동,128.522808503039,35.8121889693631,3963222.8367587337,456889.9620751689
684,대구광역시 달서구 파호동,128.473994865515,35.8413212157898,3966476.5691422345,452497.4070414814
685,대구광역시 달서구 호림동,128.479022878175,35.8343457044158,3965700.4644423407,452947.3629859985
686,대구광역시 달서구 호산동,128.484182673527,35.8439966092079,3966768.407347142,453419.0222471211
687,대구광역시 달성군 가창면,128.622823693029,35.8027049070586,3962131.523042971,465921.44695910864
688,대구광역시 달성군 구지면,128.41359613327,35.6587967490842,3946263.448224144,446921.79079377605
689,대구광역시 달성군 논공읍,128.419898296813,35.7743377407013,3959074.8529892582,447567.9810216305
690,대구광역시 달성군 다사읍,128.494266152885,35.8722148474929,3969893.433205109,454345.8032610633
691,대구광역시 달성군 대구광역시,128.431220139822,35.7744738663997,3959083.9529933175,448591.39502632525
692,대구광역시 달성군 대구광역시,128.431220139822,35.7744738663997,3959083.9529933175,448591.39502632525
693,대구광역시 달성군 대구광역시,128.431220139822,35.7744738663997,3959083.9529933175,448591.39502632525
694,대구광역시 달성군 옥포면,128.463726101613,35.7896007557197,3960745.1447948744,451538.6245387596
695,대구광역시 달성군 유가면,128.485391163307,35.6820085155638,3948801.463920724,453433.84516610805
696,대구광역시 달성군 하빈면,128.445522157,35.9009239874901,3973101.5404029232,449963.5508475693
697,대구광역시 달성군 현풍면,128.447655933061,35.6974640247088,3950534.18796049,450028.8507643784
698,대구광역시 달성군 화원읍,128.500510378829,35.8038038285711,3962302.8672681404,454870.76391896623
699,대구광역시 동구 각산동,128.715781885098,35.8874753160381,3971505.2350257942,474347.7232204049
700,대구광역시 동구 검사동,128.665327486918,35.8979250732657,3972678.6685738117,469797.8851456592
701,대구광역시 동구 괴전동,128.736056152725,35.8696480790661,3969522.8360830504,476172.2553309275
702,대구광역시 동구 금강동,128.734782022297,35.8583303551534,3968267.8705444387,476053.8276833292
703,대구광역시 동구 내곡동,128.749259563019,35.9075990214426,3973728.9478411186,477375.00486344326
704,대구광역시 동구 내동,128.65615506585,35.9683505600422,3980492.715316412,468997.6374846705
705,대구광역시 동구 능성동,128.736417061467,35.9696667099754,3980616.1644481164,476234.77607528196
706,대구광역시 동구 대림동,128.745095241715,35.8678590141192,3969322.2414279836,476987.75088347826
707,대구광역시 동구 덕곡동,128.621705277527,35.9788849510234,3981672.6330418396,465896.03216727957
708,대구광역시 동구 도동,128.66703226419,35.9236484205448,3975531.21088197,469961.4561007678
709,대구광역시 동구 도학동,128.716778959086,35.9913777582333,3983029.201016303,474471.15018815966
710,대구광역시 동구 동내동,128.741458851002,35.8929088749619,3972101.452457471,476666.81263859937
711,대구광역시 동구 동호동,128.717189706817,35.8648730095202,3968997.982455016,474467.53573517426
712,대구광역시 동구 둔산동,128.691254332437,35.9067649454864,3973651.4250168414,472140.72750571446
713,대구광역시 동구 매여동,128.727913722398,35.9137401998145,3974415.2404896715,475450.8041024139
714,대구광역시 동구 미곡동,128.682986543918,35.9592182895256,3979471.619713181,471413.5820000545
715,대구광역시 동구 미대동,128.672346026409,35.9629967838868,3979893.8791557774,470455.4865852314
716,대구광역시 동구 방촌동,128.665254119185,35.8800404543579,3970695.0516784326,469784.4702507052
717,대구광역시 동구 백안동,128.694611587761,35.9544661718272,3978941.198412637,472460.21398825926
718,대구광역시 동구 봉무동,128.644934245111,35.9254563786381,3975738.7614215673,467968.61396755854
719,대구광역시 동구 부동,128.690871711668,35.8908636705553,3971887.872078802,472100.6225821481
720,대구광역시 동구 불로동,128.637138916656,35.9112638211923,3974167.1959696114,467259.5262307774
721,대구광역시 동구 사복동,128.753080236639,35.8694981075371,3969502.187720226,477709.0794093641
722,대구광역시 동구 상매동,128.712462704785,35.9163946388797,3974713.6470673415,474057.58713234065
723,대구광역시 동구 서호동,128.710487625315,35.8647703953391,3968988.3717934005,473862.4281956026
724,대구광역시 동구 송정동,128.625154542555,35.992895784586,3983225.4453168525,466212.96512763505
725,대구광역시 동구 숙천동,128.74880595319,35.8855751210354,3971286.315282887,477327.79512904433
726,대구광역시 동구 신기동,128.704966532069,35.866878235873,3969223.6475619427,473364.68031155545
727,대구광역시 동구 신무동,128.672859871167,36.0041454039137,3984457.717825216,470517.1312192395
728,대구광역시 동구 신서동,128.727195348274,35.8729369783141,3969889.811997682,475373.3548890019
729,대구광역시 동구 신암동,128.616332122198,35.8842737864276,3971180.810237888,465370.39442258823
730,대구광역시 동구 신용동,128.651640052396,35.9863811406822,3982494.01859656,468597.6883987766
731,대구광역시 동구 신천동,128.626843791513,35.8719700892442,3969812.495979516,466313.96615487954
732,대구광역시 동구 신평동,128.679471016276,35.8833748952232,3971060.5835144264,471068.96239595284
733,대구광역시 동구 용계동,128.68934295574,35.8762436666167,3970266.7614265718,471957.49581613287
734,대구광역시 동구 용수동,128.676613180922,35.9760863370909,3981344.417997252,470845.0696351977
735,대구광역시 동구 율암동,128.703628202746,35.8839970067429,3971122.7033757027,473249.61254116
736,대구광역시 동구 율하동,128.692190221825,35.8643519307826,3968947.003701945,472210.3627043918
737,대구광역시 동구 입석동,128.652936270186,35.900042746643,3972917.447701636,468680.4848447422
738,대구광역시 동구 중대동,128.640929149449,36.0017823006578,3984205.743610512,467638.4601356691
739,대구광역시 동구 지묘동,128.642494683069,35.9499824176018,3978459.8489481714,467758.4960029946
740,대구광역시 동구 지저동,128.638281363236,35.8933913953701,3972184.520274477,467355.2693883756
741,대구광역시 동구 진인동,128.715733379502,35.9523024955821,3978695.4612041125,474364.27342949033
742,대구광역시 동구 평광동,128.692306579091,35.933279155346,3976591.912961214,472244.94095461804
743,대구광역시 동구 효목동,128.644837649626,35.8816194653154,3970876.687532438,467942.2254025803
744,대구광역시 북구 검단동,128.627218335816,35.9134316582467,3974411.009377075,466365.3190682754
745,대구광역시 북구 고성동1가,128.585682231533,35.8783419803621,3970534.18612414,462601.1526893478
746,대구광역시 북구 고성동2가,128.582128400277,35.8800361417107,3970723.4565319866,462281.1636246582
747,대구광역시 북구 고성동3가,128.58760775366,35.8816147228289,3970896.441894752,462776.4942844594
748,대구광역시 북구 관음동,128.547307377997,35.944243940444,3977859.0006941436,459171.0566867489
749,대구광역시 북구 구암동,128.56604087841,35.9388896858902,3977257.461871415,460858.0259362815
750,대구광역시 북구 국우동,128.575396773359,35.947994862814,3978263.6472572014,461706.3011384745
751,대구광역시 북구 금호동,128.52696412093,35.9112198561585,3974204.8529209597,457318.51424856833
752,대구광역시 북구 노곡동,128.560540113489,35.9043791722133,3973431.9757614047,460344.6439562689
753,대구광역시 북구 노원동1가,128.579468655293,35.8881742317474,3971627.1093930453,462044.96583928604
754,대구광역시 북구 노원동2가,128.574460955318,35.8909686567833,3971939.005204221,461594.34301574883
755,대구광역시 북구 노원동3가,128.564261537277,35.8926627408683,3972130.958338035,460674.6595902757
756,대구광역시 북구 대현동,128.605809327277,35.8821476943226,3970948.777485836,464419.65839350456
757,대구광역시 북구 도남동,128.591336772883,35.9687232224488,3980556.590755977,463153.51911853015
758,대구광역시 북구 동변동,128.608913487224,35.9254399903659,3975749.3586192066,464719.06724603154
759,대구광역시 북구 동천동,128.558162654625,35.9372187898208,3977075.3228652193,460146.58764166146
760,대구광역시 북구 동호동,128.567104363307,35.9671498228859,3980391.5016911486,460967.8547230763
761,대구광역시 북구 매천동,128.539306198689,35.9072053383485,3973754.2640523827,458430.03359646146
762,대구광역시 북구 복현동,128.618382558268,35.8936143912751,3972216.0834106705,465559.51136799937
763,대구광역시 북구 사수동,128.512312485407,35.8996543353405,3972928.574247067,455990.10062889766
764,대구광역시 북구 산격동,128.594671874264,35.8926339920658,3972115.959637395,463419.1903659487
765,대구광역시 북구 서변동,128.594195031744,35.9328995268225,3976582.1448099734,463394.70877991006
766,대구광역시 북구 연경동,128.615258465142,35.9567429427196,3979219.03016963,465305.1514670756
767,대구광역시 북구 읍내동,128.550591813611,35.9458199920276,3978032.4390202174,459468.09105046256
768,대구광역시 북구 조야동,128.575635289984,35.9144550124083,3974543.50470102,461711.64372263825
769,대구광역시 북구 칠성동1가,128.604264495705,35.8756080393593,3970224.0067579206,464277.2823271707
770,대구광역시 북구 칠성동2가,128.597832518637,35.8779718720379,3970488.556240313,463697.7485754187
771,대구광역시 북구 침산동,128.581164319124,35.8903579121137,3971868.651870831,462199.0466691925
772,대구광역시 북구 태전동,128.543249823001,35.9240998152356,3975626.4299302544,458794.64522688603
773,대구광역시 북구 팔달동,128.536501680719,35.8950649715332,3972408.9252636507,458170.5830715953
774,대구광역시 북구 학정동,128.567565795189,35.9516875395389,3978676.3202501102,461001.85921036464
775,대구광역시 서구 내당동,128.560736898516,35.8606854560362,3968585.6741713355,460340.62395148206
776,대구광역시 서구 비산동,128.548031933402,35.8872751502313,3971540.0533140586,459207.16711784573
777,대구광역시 서구 상리동,128.526364362555,35.8804514546528,3970792.472254331,457247.8577043599
778,대구광역시 서구 원대동1가,128.578786427626,35.8805847639949,3970785.600698234,461979.7636887744
779,대구광역시 서구 원대동2가,128.580543313179,35.8838526292786,3971147.368782822,462139.90260555205
780,대구광역시 서구 원대동3가,128.576298022567,35.88464736721,3971237.1685154615,461757.103206783
781,대구광역시 서구 이현동,128.540333591375,35.8744805073179,3970124.1945561906,458505.6679288754
782,대구광역시 서구 중리동,128.538482236892,35.8634813608976,3968905.029923561,458332.7860999424
783,대구광역시 서구 평리동,128.5634751646,35.8756485454503,3970244.171294497,460595.2616367667
784,대구광역시 수성구 가천동,128.685618787215,35.8534793655941,3967742.9872355512,471613.20345253794
785,대구광역시 수성구 고모동,128.67037664043,35.8624404894429,3968741.418873967,470240.27094814135
786,대구광역시 수성구 노변동,128.696435914072,35.8314728289966,3965299.1089286804,472582.3576959965
787,대구광역시 수성구 대흥동,128.677590018818,35.8103083725955,3962957.1629917203,470872.47669705364
788,대구광역시 수성구 두산동,128.6206587993,35.8294260861559,3965095.9775129766,465737.3266594466
789,대구광역시 수성구 만촌동,128.646939337071,35.8729577899757,3969915.3078513993,468128.4599466809
790,대구광역시 수성구 매호동,128.709151243074,35.8503785758524,3967392.498085149,473737.03096161643
791,대구광역시 수성구 범물동,128.645964449875,35.8178791093646,3963806.715954752,468018.3492200415
792,대구광역시 수성구 범어동,128.622124414966,35.8555358516494,3967991.363928337,465880.8876268693
793,대구광역시 수성구 사월동,128.718870829886,35.8397795931,3966214.376164242,474611.3116531294
794,대구광역시 수성구 삼덕동,128.673829855948,35.8272301190651,3964835.109921426,470539.02344354853
795,대구광역시 수성구 상동,128.615414999436,35.8321136243905,3965395.906824388,465264.86772180384
796,대구광역시 수성구 성동,128.721318475549,35.8489793123637,3967234.104533048,474835.26458230073
797,대구광역시 수성구 수성동1가,128.610591520883,35.8573563472892,3968197.3643423547,464840.3593207564
798,대구광역시 수성구 수성동2가,128.615069360439,35.8526174943197,3967670.164872019,465242.5964621038
799,대구광역시 수성구 수성동3가,128.619393590123,35.8579841514511,3968263.867553135,465635.3717002327
800,대구광역시 수성구 수성동4가,128.615044185307,35.8622888877546,3968742.8548582923,465244.54501219053
801,대구광역시 수성구 시지동,128.694630125483,35.8431337434616,3966592.9528682414,472423.29581807577
802,대구광역시 수성구 신매동,128.710479796844,35.8386449773118,3966090.7431553123,473853.14571310056
803,대구광역시 수성구 연호동,128.673559535937,35.8438616562051,3966679.8307586215,470520.760107527
804,대구광역시 수성구 욱수동,128.704668612237,35.8157306531,3963550.840553969,473320.66238648363
805,대구광역시 수성구 이천동,128.656518963884,35.8391415684818,3966161.583067935,468980.0660802846
806,대구광역시 수성구 중동,128.615078532263,35.8473943465577,3967090.848540981,465241.1452465471
807,대구광역시 수성구 지산동,128.636441754136,35.826133871387,3964725.4209177503,467161.5170640148
808,대구광역시 수성구 파동,128.61514418667,35.8154748904578,3963550.5652116886,465233.15290060535
809,대구광역시 수성구 황금동,128.638149961102,35.84398924816,3966705.229487421,467323.13430208573
810,대구광역시 중구 계산동1가,128.586577471004,35.8688212889845,3969477.873775328,462677.4978424452
811,대구광역시 중구 계산동2가,128.588035461325,35.8675404186391,3969335.2529847366,462808.52288797015
812,대구광역시 중구 공평동,128.598303436262,35.8687847705398,3969469.411254444,463736.0705010003
813,대구광역시 중구 교동,128.599664275834,35.8732543416388,3969964.6413494395,463860.95322170015
814,대구광역시 중구 남산동,128.590445451725,35.8593874161046,3968430.0652131443,463022.3070809909
815,대구광역시 중구 남성로,128.58803740818,35.8691912889829,3969518.3553695586,462809.4700493237
816,대구광역시 중구 남일동,128.593886766902,35.8689335780008,3969487.5629107906,463337.4136304505
817,대구광역시 중구 달성동,128.580138728215,35.8768650795239,3970372.5130655454,462100.05597631796
818,대구광역시 중구 대봉동,128.604382212405,35.8616784184071,3968678.9874099153,464281.65789484524
819,대구광역시 중구 대신동,128.576350209281,35.8656000853423,3969124.5519145187,461752.65932410874
820,대구광역시 중구 대안동,128.591310719295,35.8729868354141,3969938.0912549314,463106.73419162154
821,대구광역시 중구 덕산동,128.593692744678,35.8658794738768,3969148.895688748,463318.49037465185
822,대구광역시 중구 도원동,128.583603221135,35.8762499234258,3970302.9465755997,462412.4992050814
823,대구광역시 중구 동문동,128.599939566016,35.8715276912168,3969773.0314649255,463885.0207267481
824,대구광역시 중구 동산동,128.584619395149,35.8676756506265,3969351.5566120315,462500.18809513684
825,대구광역시 중구 동성로1가,128.595831334943,35.8729304577252,3969930.1418859027,463514.79625288065
826,대구광역시 중구 동성로2가,128.595664870862,35.8699300621047,3969597.4208077076,463498.3929543798
827,대구광역시 중구 동성로3가,128.59431101422,35.8673419349861,3969310.869938842,463374.9811098693
828,대구광역시 중구 동인동1가,128.603969366691,35.8719533481071,3969818.7614333075,464248.99924478435
829,대구광역시 중구 동인동2가,128.604444119773,35.8687028970171,3969458.0704980292,464290.39858300774
830,대구광역시 중구 동인동3가,128.609643570754,35.8717873205325,3969798.286951614,464761.15750044823
831,대구광역시 중구 동인동4가,128.612012836931,35.8674120455348,3969312.1607520347,464973.1149926812
832,대구광역시 중구 동일동,128.592781536255,35.869470903176,3969547.5742571377,463237.88464861905
833,대구광역시 중구 문화동,128.59738973059,35.8711398969606,3969730.9648090913,463654.65907266736
834,대구광역시 중구 봉산동,128.597966357221,35.8619225445556,3968708.4263280514,463702.51088987954
835,대구광역시 중구 북내동,128.589881080046,35.8728075177877,3969918.742963564,462977.5934433317
836,대구광역시 중구 북성로1가,128.594867012731,35.8743130037833,3970083.844703557,463428.37967778987
837,대구광역시 중구 북성로2가,128.58996780239,35.8738228592672,3970031.324870691,462985.8943888027
838,대구광역시 중구 사일동,128.594495494286,35.8710233592533,3969719.1189394947,463393.32907636784
839,대구광역시 중구 삼덕동1가,128.598450353214,35.8657369524839,3969131.314071242,463747.9456637524
840,대구광역시 중구 삼덕동2가,128.603241464298,35.8650603191722,3969054.501148862,464180.186710239
841,대구광역시 중구 삼덕동3가,128.607793907673,35.8639721652056,3968932.1528856116,464590.70450462855
842,대구광역시 중구 상덕동,128.59785163709,35.8736317189339,3970007.1689555165,463697.4942769589
843,대구광역시 중구 상서동,128.590194947482,35.8703414386579,3969645.103592276,463004.7807752418
844,대구광역시 중구 서내동,128.589166193119,35.8720492050164,3969834.907030032,462912.7051569167
845,대구광역시 중구 서문로1가,128.589180270945,35.8712019438124,3969740.9292884734,462913.5811822934
846,대구광역시 중구 서문로2가,128.58656625004,35.8704795424921,3969661.800122983,462677.26248606044
847,대구광역시 중구 서성로1가,128.587286291807,35.8721641790984,3969848.3738634605,462743.0532938315
848,대구광역시 중구 서성로2가,128.587276420815,35.8698934269613,3969596.521377638,462741.09912151395
849,대구광역시 중구 서야동,128.585656341533,35.8730435986497,3969946.5353892446,462596.3251608369
850,대구광역시 중구 수동,128.589349456448,35.8690297509754,3969499.9404614335,462927.84253953444
851,대구광역시 중구 수창동,128.585644888658,35.8746910405715,3970129.2628232753,462596.0656539923
852,대구광역시 중구 시장북로,128.58248262501,35.8722383826178,3969858.445078709,462309.444121902
853,대구광역시 중구 완전동,128.599158193414,35.8723130799068,3969860.43025138,463814.8399940004
854,대구광역시 중구 용덕동,128.597084635775,35.8738113356764,3970027.375869827,463628.3377117942
855,대구광역시 중구 인교동,128.583980201873,35.8729395563212,3969935.638233693,462444.96656399634
856,대구광역시 중구 장관동,128.590529504324,35.8686897180423,3969461.7796154045,463034.21596122585
857,대구광역시 중구 전동,128.592887803548,35.8705760977786,3969670.114864986,463247.98846562795
858,대구광역시 중구 종로1가,128.59176235755,35.8701044013748,3969618.2211534516,463146.16997452086
859,대구광역시 중구 종로2가,128.591854807772,35.8680846145942,3969394.165533344,463153.58094736736
860,대구광역시 중구 태평로1가,128.596960457862,35.8746852924858,3970124.3553796965,463617.52754623967
861,대구광역시 중구 태평로2가,128.592467166482,35.8754478473952,3970210.614158883,463212.26749118493
862,대구광역시 중구 태평로3가,128.586621863639,35.8765993753498,3970340.5490687634,462685.1528311749
863,대구광역시 중구 포정동,128.592412646284,35.8720602733817,3969834.9081141204,463205.7796575934
864,대구광역시 중구 하서동,128.588116005703,35.870022906772,3969610.5627932483,462816.9541224736
865,대구광역시 중구 향촌동,128.593807915603,35.8731772055374,3969958.2664091107,463332.250422205
866,대구광역시 중구 화전동,128.595033125542,35.8730996623103,3969949.2070509386,463442.8174673639
867,인천광역시 강화군 강화읍,126.483733815019,37.7483479287951,4180875.5751611865,278307.73544752353
868,인천광역시 강화군 교동면,126.283014815298,37.7845285796274,4185385.7231229628,260737.1336475132
869,인천광역시 강화군 길상면,126.490997068792,37.6406562660378,4168907.472926439,278627.55837990344
870,인천광역시 강화군 내가면,126.389827319378,37.7193820844795,4177887.838058399,269943.1258476039
871,인천광역시 강화군 불은면,126.480343900914,37.6865846022372,4174029.4956573695,277824.5046212687
872,인천광역시 강화군 삼산면,126.320913043368,37.7034763578523,4176294.3389914203,263817.48822550866
873,인천광역시 강화군 서도면,126.239320129833,37.6504198627877,4170615.219193288,256449.49961279353
874,인천광역시 강화군 선원면,126.48482509821,37.7133449417265,4176988.564629771,278299.4800275725
875,인천광역시 강화군 송해면,126.463254769088,37.7647980152118,4182749.8691209746,276552.682471339
876,인천광역시 강화군 양도면,126.422096586903,37.6628523497572,4171535.6121838028,272615.0915839386
877,인천광역시 강화군 양사면,126.408561523771,37.7984227819949,4186613.5757473735,271837.72113825416
878,인천광역시 강화군 하점면,126.411636420428,37.7749161689117,4183997.3872605977,272036.23754650133
879,인천광역시 강화군 화도면,126.419836724037,37.6316748413931,4168081.1991662993,272320.4933152625
880,인천광역시 계양구 갈현동,126.723880688201,37.5773169489369,4161354.4971384318,299007.5939717266
881,인천광역시 계양구 계산동,126.724510217287,37.5428607963106,4157529.6727611506,298970.5770731118
882,인천광역시 계양구 귤현동,126.741944726922,37.5678793766951,4160268.728579255,300577.7709395656
883,인천광역시 계양구 노오지동,126.758864872717,37.583257248995,4161939.3546787524,302113.0109285598
884,인천광역시 계양구 다남동,126.722615295983,37.564429788885,4159927.161629678,298861.161559883
885,인천광역시 계양구 동양동,126.76107996894,37.5589709760259,4159239.7396329497,302244.37967269483
886,인천광역시 계양구 둑실동,126.704315511328,37.5746819164737,4161104.158709057,297272.5074321503
887,인천광역시 계양구 목상동,126.711865455864,37.5695577224305,4160519.2687437865,297925.4665438533
888,인천광역시 계양구 박촌동,126.743870756602,37.5581059823774,4159180.124827652,300721.8449223869
889,인천광역시 계양구 방축동,126.734758464304,37.5553468386221,4158893.3239319352,299909.4885581472
890,인천광역시 계양구 병방동,126.747819992068,37.5482215503967,4158074.919216165,301044.4257269156
891,인천광역시 계양구 상야동,126.771846910605,37.5733541196412,4160813.1608634945,303233.3692132799
892,인천광역시 계양구 서운동,126.752292867881,37.5302218715553,4156068.1123835095,301391.8411264102
893,인천광역시 계양구 선주지동,126.747818789282,37.5781273473067,4161393.449537091,301123.88447888475
894,인천광역시 계양구 오류동,126.727076066333,37.5851882297164,4162221.111921269,299310.9432875212
895,인천광역시 계양구 용종동,126.741676429816,37.540675935415,4157250.6408214793,300481.5145860319
896,인천광역시 계양구 이화동,126.739748483773,37.5874873459744,4162449.220877943,300436.1536496229
897,인천광역시 계양구 임학동,126.732949923189,37.5483798675873,4158124.079741872,299731.0636293485
898,인천광역시 계양구 작전동,126.729885541395,37.5307998427734,4156179.8308221176,299413.2028620794
899,인천광역시 계양구 장기동,126.73645899083,37.5763618168407,4161221.6576011805,300115.91429148964
900,인천광역시 계양구 평동,126.773992947939,37.5824222311681,4161814.9160101446,303446.7620743142
901,인천광역시 계양구 하야동,126.786394548594,37.5799946255954,4161519.6437573484,304535.59629693336
902,인천광역시 계양구 효성동,126.712126095433,37.5324085170087,4156396.3886524667,297848.11087930633
903,인천광역시 남동구 간석동,126.705351572816,37.4586752910068,4148229.1141383825,297049.8802921863
904,인천광역시 남동구 고잔동,126.69630508548,37.3948569954357,4141167.063312142,296076.5131772466
905,인천광역시 남동구 구월동,126.713525152911,37.4493320894429,4147174.7570354533,297747.7194046489
906,인천광역시 남동구 남촌동,126.714650246045,37.4292314211436,4144941.8757800474,297793.14109806647
907,인천광역시 남동구 논현동,126.729150577399,37.4059832797152,4142331.141980659,299014.1442862835
908,인천광역시 남동구 도림동,126.728001310114,37.4177046735257,4143634.2462487947,298943.7631045238
909,인천광역시 남동구 만수동,126.732119636521,37.4488855477954,4147085.4306662483,299391.5454244098
910,인천광역시 남동구 서창동,126.750535160559,37.4328373664367,4145265.5872012577,300978.2109181351
911,인천광역시 남동구 수산동,126.729507720893,37.4360708083707,4145669.0173119945,299126.1964091391
912,인천광역시 남동구 운연동,126.763421771259,37.4381257818049,4145825.261422195,302132.4405587803
913,인천광역시 남동구 장수동,126.753040520037,37.4571231075949,4147955.1412004773,301264.19156578934
914,인천광역시 동구 금곡동,126.64101698646,37.4727945498272,4149936.5183453006,291398.2380648616
915,인천광역시 동구 만석동,126.625508844154,37.4832593369187,4151132.2546522,290055.96746394795
916,인천광역시 동구 송림동,126.64015041084,37.4762265463571,4150319.2772872243,291331.1452781524
917,인천광역시 동구 송현동,126.641120648772,37.4889408638872,4151727.994999718,291452.3174265731
918,인천광역시 동구 창영동,126.639949255761,37.4710253298738,4149742.5609529475,291298.88349909225
919,인천광역시 동구 화수동,126.630098353638,37.48435499929,4151243.6060708766,290464.87820031063
920,인천광역시 동구 화평동,126.630934125633,37.4790236691568,4150650.1426613587,290523.8904780615
921,인천광역시 미추홀구 관교동,126.696742918767,37.4431273039606,4146522.4204374077,296246.18392241374
922,인천광역시 미추홀구 도화동,126.66382722965,37.4704037020948,4149620.8987352955,293409.02749679016
923,인천광역시 미추홀구 문학동,126.685840004885,37.4367196637247,4145835.039340538,295264.0699272943
924,인천광역시 미추홀구 숭의동,126.6505721129,37.4639861204445,4148937.9408576777,292218.91414165695
925,인천광역시 미추홀구 용현동,126.648591852703,37.4514021746601,4147545.919021459,292008.883170158
926,인천광역시 미추홀구 주안동,126.685315551042,37.4583425223071,4148235.569957766,295276.63510852796
927,인천광역시 미추홀구 학익동,126.654380831267,37.4410179859399,4146380.8541126777,292492.31750823045
928,인천광역시 부평구 갈산동,126.727295254355,37.5176032533047,4154720.991538386,299148.89580093935
929,인천광역시 부평구 구산동,126.751878673426,37.4707907888381,4149474.2200505445,301197.6316196582
930,인천광역시 부평구 부개동,126.736902911522,37.4848429355418,4151065.2527543698,299910.63263736176
931,인천광역시 부평구 부평동,126.723090470976,37.4910355141783,4151781.8775965883,298705.8804433129
932,인천광역시 부평구 산곡동,126.703817982723,37.4978724390987,4152581.9551622686,297020.3419303984
933,인천광역시 부평구 삼산동,126.740015740398,37.5171021494127,4154638.2877408876,300271.8892625364
934,인천광역시 부평구 십정동,126.699910983781,37.4760762809563,4150171.7658142745,296615.7982191988
935,인천광역시 부평구 일신동,126.746966677023,37.4845910113843,4151015.9441014393,300799.8609281905
936,인천광역시 부평구 청천동,126.709948306142,37.5174754318654,4154744.0075620776,297615.29565154604
937,인천광역시 서구 가정동,126.674522669542,37.5232288067733,4155459.290145264,294499.8795243648
938,인천광역시 서구 가좌동,126.673098188916,37.4939783807824,4152216.5826429445,294293.6746378385
939,인천광역시 서구 검암동,126.6734114725,37.5642859120746,4160017.7128004883,294514.46766286355
940,인천광역시 서구 경서동,126.651337176951,37.5561823274357,4159167.002275882,292542.0894715463
941,인천광역시 서구 공촌동,126.699864464232,37.5498393058779,4158357.0687879142,296811.88716124906
942,인천광역시 서구 금곡동,126.640861415782,37.613763739671,4165579.915704484,291777.1909868097
943,인천광역시 서구 당하동,126.674585246871,37.5921117368325,4163102.9141393034,294694.6190996745
944,인천광역시 서구 대곡동,126.668509703115,37.6231788392197,4166563.6857471163,294243.8040058246
945,인천광역시 서구 마전동,126.673701407057,37.5953744773207,4163466.9076441186,294625.5488598867
946,인천광역시 서구 백석동,126.672625099561,37.5784473189524,4161590.8920102613,294483.9487277246
947,인천광역시 서구 불로동,126.688288338704,37.61215063367,4165296.701067587,295959.37652547826
948,인천광역시 서구 석남동,126.674801640164,37.5110804950594,4154110.6213622107,294491.20019252563
949,인천광역시 서구 시천동,126.691810867543,37.5709198281969,4160713.7620493695,296157.8316160714
950,인천광역시 서구 신현동,126.667308939306,37.5183433123232,4154932.9559337692,293848.8675233162
951,인천광역시 서구 심곡동,126.683562499805,37.5406173997724,4157369.123723142,295346.3845232229
952,인천광역시 서구 연희동,126.678203978634,37.548974969966,4158308.2234159135,294895.81456881383
953,인천광역시 서구 오류동,126.619592696141,37.5947475773332,4163517.1282479838,289846.16192980576
954,인천광역시 서구 왕길동,126.650666521601,37.5912216682019,4163056.7347709755,292580.11555108713
955,인천광역시 서구 원당동,126.706574499675,37.595583314184,4163418.6534591597,297528.67880532925
956,인천광역시 서구 원창동,126.640053562099,37.5114914857686,4154232.7410261487,291420.7439384672
957,인천광역시 서구 청라동,126.630970210614,37.5360210477793,4156974.920589659,290686.40140912484
958,인천광역시 연수구 동춘동,126.670826553603,37.4096123478585,4142859.806056724,293861.27354642184
959,인천광역시 연수구 선학동,126.701385903384,37.4224482590648,4144217.73712958,296600.9902078004
960,인천광역시 연수구 송도동,126.652089783488,37.3910698289609,4140843.3745254013,292151.52840545867
961,인천광역시 연수구 연수동,126.681481155615,37.42221249729,4144234.7315168525,294838.7692670005
962,인천광역시 연수구 옥련동,126.655166478511,37.4274077931914,4144868.8563693264,292524.239814549
963,인천광역시 연수구 청학동,126.666158794496,37.4250030076557,4144577.856218723,293490.395416219
964,인천광역시 옹진군 대청면,124.712308819935,37.8252535468268,4187808.008485727,650697.7876679192
965,인천광역시 옹진군 덕적면,126.144705565589,37.2276332114677,4123945.445802502,246678.12270189013
966,인천광역시 옹진군 백령면,124.718710475438,37.9743612082617,4204363.723933265,650956.2610766247
967,인천광역시 옹진군 북도면,126.429069369524,37.5329794642507,4157106.292249503,272835.4031083402
968,인천광역시 옹진군 연평면,125.702047674071,37.6651915483657,4172103.7706801845,738329.6383786108
969,인천광역시 옹진군 영흥면,126.483321517933,37.2559012375492,4126229.4356777556,276809.1573406758
970,인천광역시 옹진군 자월면,126.307202843874,37.2546232671261,4126517.853320154,261183.09446554098
971,인천광역시 인천광역시  인천광역시,126.705267083529,37.4560116962015,4147933.729925443,297035.20341316314
972,인천광역시 인천광역시  인천광역시,126.705267083529,37.4560116962015,4147933.729925443,297035.20341316314
973,인천광역시 인천광역시  인천광역시,126.705267083529,37.4560116962015,4147933.729925443,297035.20341316314
974,인천광역시 인천광역시  인천광역시,126.705267083529,37.4560116962015,4147933.729925443,297035.20341316314
975,인천광역시 인천광역시  인천광역시,126.705267083529,37.4560116962015,4147933.729925443,297035.20341316314
976,인천광역시 인천광역시  인천광역시,126.705267083529,37.4560116962015,4147933.729925443,297035.20341316314
977,인천광역시 인천광역시  인천광역시,126.705267083529,37.4560116962015,4147933.729925443,297035.20341316314
978,인천광역시 중구 경동,126.634586161031,37.4719999726785,4149862.6205420475,290827.26826374023
979,인천광역시 중구 관동1가,126.621350714559,37.4737783312896,4150089.4598747776,289661.6737206889
980,인천광역시 중구 관동2가,126.62338141097,37.4728117358066,4149977.6626167945,289838.5620061986
981,인천광역시 중구 관동3가,126.624864288216,37.4719695079718,4149880.892520608,289967.3523063356
982,인천광역시 중구 남북동,126.410654282755,37.4530644703658,4148282.6334344717,270963.8692530696
983,인천광역시 중구 내동,126.627754629171,37.4727066611058,4149956.2455687327,290225.04435878433
984,인천광역시 중구 답동,126.629303625267,37.4703689164196,4149693.381358411,290355.5070960738
985,인천광역시 중구 덕교동,126.422771894891,37.4368990249211,4146459.322881419,271986.8083592142
986,인천광역시 중구 도원동,126.637928653864,37.4680782719059,4149420.018112501,291111.9673063187
987,인천광역시 중구 무의동,126.422172947152,37.379555947382,4140097.3783542765,271759.76647160377
988,인천광역시 중구 북성동1가,126.603237142771,37.4700788377632,4149719.5765116476,288049.2359935309
989,인천광역시 중구 북성동2가,126.618286057207,37.4762011833895,4150365.171494967,289397.436091768
990,인천광역시 중구 북성동3가,126.620471720144,37.4759090905699,4150327.869370248,289589.91250657744
991,인천광역시 중구 사동,126.625457644242,37.4690521321642,4149555.835813841,290011.6637348741
992,인천광역시 중구 선린동,126.619009926458,37.4743546580742,4150158.6477970965,289456.2700301503
993,인천광역시 중구 선화동,126.636664803948,37.4657534000454,4149164.8403162234,290993.70621840446
994,인천광역시 중구 송월동1가,126.622450551262,37.479872641337,4150763.2708719363,289776.0285469289
995,인천광역시 중구 송월동2가,126.619120838258,37.4792312517427,4150699.542078138,289479.76887377584
996,인천광역시 중구 송월동3가,126.620913182874,37.478036878308,4150562.9971363978,289634.92351308104
997,인천광역시 중구 송학동1가,126.622241752895,37.4746353359853,4150182.5680757714,289742.8805018392
998,인천광역시 중구 송학동2가,126.624852724082,37.4742832525264,4150137.6678991164,289972.80857017206
999,인천광역시 중구 송학동3가,126.626324184048,37.4739203050829,4150094.109636665,290101.929164662
1000,인천광역시 중구 신생동,126.628917337531,37.4661870360408,4149230.1913599186,290309.65305795026
1001,인천광역시 중구 신포동,126.626505465171,37.4711133457113,4149782.2252415796,290110.10723160947
1002,인천광역시 중구 신흥동1가,126.631344304425,37.4673299004564,4149351.6073442935,290527.5087597684
1003,인천광역시 중구 신흥동2가,126.63494559242,37.4678276242243,4149398.8293218357,290847.4244116742
1004,인천광역시 중구 신흥동3가,126.62420369814,37.4368100767036,4145980.835974823,289810.48834655853
1005,인천광역시 중구 용동,126.630872929772,37.4730768457611,4149990.37751175,290501.86730190023
1006,인천광역시 중구 운남동,126.527232917984,37.4891707175438,4152012.076152036,281382.6172342455
1007,인천광역시 중구 운북동,126.515577959441,37.5163948890032,4155060.2909493935,280431.83533368114
1008,인천광역시 중구 운서동,126.48834389365,37.493329881789,4152564.7118612314,277956.18887678767
1009,인천광역시 중구 유동,126.637217395454,37.4702312969995,4149660.511218487,291055.05534428585
1010,인천광역시 중구 율목동,126.632975267383,37.4703767738304,4149686.080800731,290680.266692974
1011,인천광역시 중구 을왕동,126.384466787896,37.4479934956556,4147783.933494376,268631.4472424146
1012,인천광역시 중구 인현동,126.6305912411,37.4751843175387,4150224.864481394,290482.84157374204
1013,인천광역시 중구 전동,126.626048801298,37.4774585807635,4150487.3562125126,290087.47771392757
1014,인천광역시 중구 중산동,126.564237014514,37.4957821842546,4152660.3874519705,284673.66462402453
1015,인천광역시 중구 중앙동1가,126.620420878993,37.4734437780927,4150054.414136705,289578.49959002424
1016,인천광역시 중구 중앙동2가,126.621808352877,37.4726985908494,4149968.621338902,289699.12026580924
1017,인천광역시 중구 중앙동3가,126.622715854906,37.4720779963466,4149897.7281570355,289777.6423965602
1018,인천광역시 중구 중앙동4가,126.623953773945,37.4713899703634,4149818.615356054,289885.20026402944
1019,인천광역시 중구 항동1가,126.616728685193,37.4738895700235,4150112.144577947,289253.2094729955
1020,인천광역시 중구 항동2가,126.617370663113,37.4721437009875,4149916.9727493916,289305.0823091989
1021,인천광역시 중구 항동3가,126.619247267091,37.4721389508227,4149912.245895005,289471.0413199947
1022,인천광역시 중구 항동4가,126.620358481626,37.4714757823907,4149836.1706772363,289567.4598699152
1023,인천광역시 중구 항동5가,126.621560201942,37.4707948731774,4149757.925743905,289671.83515635814
1024,인천광역시 중구 항동6가,126.622748335453,37.4701139082377,4149679.7063767146,289775.0105362921
1025,인천광역시 중구 항동7가,126.619757459082,37.4535438176281,4147847.6572934426,289463.99383441516
1026,인천광역시 중구 해안동1가,126.620035518099,37.4727469636343,4149977.952304775,289542.4625423213
1027,인천광역시 중구 해안동2가,126.621282388868,37.472084222729,4149901.622122878,289650.87990704493
1028,인천광역시 중구 해안동3가,126.622167551021,37.4714095004422,4149824.7720104484,289727.27478644
1029,인천광역시 중구 해안동4가,126.62358244365,37.4705959032363,4149731.329123075,289850.13377263956
1030,광주광역시 광산구 고룡동,126.774960992391,35.2099746803659,3898597.006153561,297464.33797947876
1031,광주광역시 광산구 광산동,126.744602620334,35.234762793029,3901409.073092138,294762.9283651436
1032,광주광역시 광산구 남산동,126.725871954598,35.1765847896206,3894994.3130599908,292910.41790262575
1033,광주광역시 광산구 내산동,126.6597955543,35.1234175110581,3889236.134694877,286753.40026463184
1034,광주광역시 광산구 대산동,126.672406920861,35.1389123604429,3890928.022171211,287943.0065319575
1035,광주광역시 광산구 덕림동,126.670161375704,35.1863427369928,3896194.2774959113,287861.66777743865
1036,광주광역시 광산구 도덕동,126.706590801087,35.1495638620139,3892037.246445062,291085.16224353743
1037,광주광역시 광산구 도산동,126.791648871202,35.1294701758197,3889632.955092175,298785.2630966185
1038,광주광역시 광산구 도천동,126.819813944289,35.2136262951293,3898911.514381311,301556.6720808232
1039,광주광역시 광산구 도호동,126.806510585129,35.1231564289944,3888902.643568833,300124.1848331972
1040,광주광역시 광산구 동림동,126.690364917299,35.2067052859842,3898410.151390711,289754.10682697117
1041,광주광역시 광산구 동산동,126.72397797108,35.1158938480394,3888265.898338528,292583.87887859094
1042,광주광역시 광산구 동호동,126.68860104528,35.1820037722416,3895673.740811761,289529.76648867736
1043,광주광역시 광산구 두정동,126.761660250831,35.2246051549683,3900247.1548811593,296290.0032526766
1044,광주광역시 광산구 등임동,126.763494232305,35.1830817313495,3895637.261760111,296353.2373444582
1045,광주광역시 광산구 명도동,126.703008082695,35.1871956883705,3896219.258997141,290855.1858677613
1046,광주광역시 광산구 명화동,126.725110213284,35.1249893607533,3889272.4883300965,292710.1381265498
1047,광주광역시 광산구 박호동,126.750291989193,35.1705949113438,3894279.2547076177,295119.5392990642
1048,광주광역시 광산구 복룡동,126.778898133613,35.1057489320342,3887027.492935084,297564.5687996164
1049,광주광역시 광산구 본덕동,126.786273158704,35.0839490714662,3884594.346417636,298183.1136729978
1050,광주광역시 광산구 북산동,126.710392099501,35.1768660441649,3895057.8781417916,291501.23655424465
1051,광주광역시 광산구 비아동,126.824316424928,35.2220226740907,3899833.9124687444,301986.96603226836
1052,광주광역시 광산구 사호동,126.730143128715,35.2155327384543,3899305.887791007,293398.1396956493
1053,광주광역시 광산구 산막동,126.761141433588,35.2037288914834,3897932.4424494267,296190.5714094556
1054,광주광역시 광산구 산수동,126.746237351834,35.18250599307,3895608.8981594616,294780.17702703923
1055,광주광역시 광산구 산월동,126.849784570475,35.2038604864719,3897768.7460114164,304261.6219990575
1056,광주광역시 광산구 산정동,126.794749302363,35.1706098926033,3894190.189821755,299168.9796894901
1057,광주광역시 광산구 삼거동,126.672985880212,35.1642492358937,3893737.4091519117,288061.5206993136
1058,광주광역시 광산구 삼도동,126.690375686361,35.126254042478,3889485.6863267915,289547.77498438326
1059,광주광역시 광산구 서봉동,126.751676518201,35.1556857188419,3892622.552393805,295208.2554142352
1060,광주광역시 광산구 선동,126.747004945903,35.2012196645934,3897683.1971641914,294897.15188004414
1061,광주광역시 광산구 선암동,126.774507409634,35.1467708565026,3891586.868718753,297266.07076550595
1062,광주광역시 광산구 소촌동,126.794368467569,35.1527010774562,3892204.3871257096,299090.2291481094
1063,광주광역시 광산구 송대동,126.795627715791,35.1055331166321,3886969.666178391,299089.06240273
1064,광주광역시 광산구 송산동,126.717995541967,35.1647517555484,3893698.1252263742,292162.90743708354
1065,광주광역시 광산구 송정동,126.798871243927,35.1407205510962,3890866.339254485,299471.0479044658
1066,광주광역시 광산구 송촌동,126.77982935428,35.139587791383,3890779.236969244,297733.1808298462
1067,광주광역시 광산구 송치동,126.738387792705,35.1790100688611,3895237.3385897153,294056.47371274815
1068,광주광역시 광산구 송학동,126.6774529625,35.1170228591059,3888489.083666869,288346.1473456562
1069,광주광역시 광산구 수완동,126.825613247788,35.1970391036917,3897059.9735328737,302044.3423843384
1070,광주광역시 광산구 신가동,126.827644347145,35.1815964112835,3895342.9217809387,302191.8367145754
1071,광주광역시 광산구 신동,126.687423107013,35.1145431931149,3888192.85984545,289248.50590028585
1072,광주광역시 광산구 신룡동,126.774643596776,35.2215005407132,3899876.198811722,297464.09233518067
1073,광주광역시 광산구 신창동,126.840703453544,35.1956393615536,3896874.739295987,303414.9976092773
1074,광주광역시 광산구 신촌동,126.812468860391,35.1408397033064,3890852.2307025064,300710.3245561952
1075,광주광역시 광산구 쌍암동,126.848205901712,35.2189399211653,3899444.5671072365,304154.1287426077
1076,광주광역시 광산구 안청동,126.803109367905,35.2143502055269,3899025.3272243184,300037.72577223665
1077,광주광역시 광산구 양동,126.661863353223,35.1539793155816,3892621.931289901,287021.53252595814
1078,광주광역시 광산구 양산동,126.697602867333,35.1975911093947,3897383.814681279,290389.6636330702
1079,광주광역시 광산구 연산동,126.750529094707,35.1144911893795,3888055.2990090754,295000.41951207386
1080,광주광역시 광산구 오산동,126.729789371839,35.2347811061613,3901441.8395652706,293414.75911515846
1081,광주광역시 광산구 오선동,126.801235103295,35.2028639369304,3897754.958775194,299838.89553283365
1082,광주광역시 광산구 오운동,126.693274836386,35.1454098811868,3891604.5018956787,289861.25562987855
1083,광주광역시 광산구 옥동,126.760046258084,35.123487977797,3889033.7292099358,295890.3485184449
1084,광주광역시 광산구 왕동,126.714935766693,35.1985885828777,3897458.025767276,291970.48058976384
1085,광주광역시 광산구 요기동,126.759568666712,35.1038192723849,3886852.914445287,295797.7235870948
1086,광주광역시 광산구 용곡동,126.74366411212,35.1250660744642,3889242.5067256154,294401.2767678561
1087,광주광역시 광산구 용동,126.754578796432,35.132137313151,3890004.4062178987,295413.70103838714
1088,광주광역시 광산구 용봉동,126.774759454703,35.0759421018392,3883729.5498027294,297113.4388946404
1089,광주광역시 광산구 우산동,126.807055064903,35.1602176406711,3893012.617941298,300264.4212466775
1090,광주광역시 광산구 운남동,126.821896547835,35.1732667812302,3894430.4000182226,301648.1283492738
1091,광주광역시 광산구 운수동,126.771892566663,35.1683084085123,3893981.309979544,297081.35335905146
1092,광주광역시 광산구 월계동,126.836013930805,35.2146335951935,3898990.996764363,303033.88793858513
1093,광주광역시 광산구 월곡동,126.812199295072,35.1683775998942,3893907.453235585,300752.9554683212
1094,광주광역시 광산구 월전동,126.774886883014,35.1205419511992,3888676.5984435445,297235.58701800724
1095,광주광역시 광산구 유계동,126.782165567204,35.0946391973979,3885788.4913346157,297834.9762807699
1096,광주광역시 광산구 임곡동,126.744786274005,35.2196169520801,3899728.57512155,294741.477866089
1097,광주광역시 광산구 장덕동,126.814455447893,35.1937992845374,3896722.8811673303,301020.46757668036
1098,광주광역시 광산구 장록동,126.77185373435,35.1350373921636,3890290.719404752,296995.1409024106
1099,광주광역시 광산구 장수동,126.78619542548,35.1842163728357,3895716.8383322223,298423.46580615547
1100,광주광역시 광산구 지산동,126.733693415791,35.191150071838,3896593.754954798,293659.6357230609
1101,광주광역시 광산구 지정동,126.717975727255,35.1361426270623,3890524.5889211143,292088.2919675035
1102,광주광역시 광산구 지죽동,126.758284436447,35.1449909446426,3891422.615600684,295783.51481627615
1103,광주광역시 광산구 지평동,126.733499282853,35.1497053521232,3891996.747032335,293537.1466865662
1104,광주광역시 광산구 진곡동,126.789881360962,35.2109641340646,3898676.435966149,298825.145188
1105,광주광역시 광산구 하남동,126.799913050978,35.1795275298134,3895168.97728916,299661.2107984192
1106,광주광역시 광산구 하산동,126.763518673208,35.095714747473,3885945.8107515015,296137.6178961627
1107,광주광역시 광산구 황룡동,126.788709906633,35.1170226726314,3888258.1428947956,298486.75824425067
1108,광주광역시 광산구 흑석동,126.809026376864,35.1827222210526,3895505.0217836243,300499.0145256199
1109,광주광역시 남구 구동,126.909631301782,35.1471344518408,3891360.146677853,309578.10862840246
1110,광주광역시 남구 구소동,126.807524983581,35.0556455493026,3881411.9221935943,300051.82247565326
1111,광주광역시 남구 노대동,126.910195553303,35.1009850027532,3886240.0031688036,309522.0438727811
1112,광주광역시 남구 대지동,126.819078859316,35.069461542701,3882921.3467346006,301139.2097272039
1113,광주광역시 남구 덕남동,126.902618813413,35.0900653804566,3885043.2811423456,308805.84308875643
1114,광주광역시 남구 도금동,126.84388047586,35.0753188620661,3883521.8565865275,303415.094738238
1115,광주광역시 남구 방림동,126.918282790303,35.1343700954567,3889927.7491472587,310336.7102919151
1116,광주광역시 남구 백운동,126.903904454235,35.1383219381902,3890393.605457454,309035.7490580643
1117,광주광역시 남구 봉선동,126.91108911187,35.130561278002,3889518.997015029,309672.3343242958
1118,광주광역시 남구 사동,126.912620107381,35.1435059599516,3890951.9425560776,309841.96980251966
1119,광주광역시 남구 서동,126.905780092143,35.1446545775586,3891092.448526538,309221.43956742773
1120,광주광역시 남구 석정동,126.816243398506,35.0881697244256,3885002.217568613,300926.10158839123
1121,광주광역시 남구 송하동,126.881219956665,35.1091264647877,3887198.8954389864,306899.8309712276
1122,광주광역시 남구 승촌동,126.773041833632,35.0579367164764,3881735.7810756536,296912.1843359561
1123,광주광역시 남구 신장동,126.817850705587,35.059696039814,3881840.5603293628,301003.4926158057
1124,광주광역시 남구 압촌동,126.837185359301,35.0942207933576,3885631.778593924,302850.0804175801
1125,광주광역시 남구 양과동,126.874696383765,35.0857131673565,3884614.469901569,306249.78084757016
